{"{\"0\":\"Boston, Massachusetts\"}":[{"formattedAddress":"Boston, MA, USA","latitude":42.3600825,"longitude":-71.0588801,"extra":{"googlePlaceId":"ChIJGzE9DS1l44kRoOhiASS_fHg","confidence":0.5,"premise":null,"subpremise":null,"neighborhood":null,"establishment":null},"administrativeLevels":{"level2long":"Suffolk County","level2short":"Suffolk County","level1long":"Massachusetts","level1short":"MA"},"city":"Boston","country":"United States","countryCode":"US"}],"{\"0\":\"Las Vegas, Nevada\"}":[{"formattedAddress":"Las Vegas, NV, USA","latitude":36.1699412,"longitude":-115.1398296,"extra":{"googlePlaceId":"ChIJ0X31pIK3voARo3mz1ebVzDo","confidence":0.5,"premise":null,"subpremise":null,"neighborhood":null,"establishment":null},"administrativeLevels":{"level2long":"Clark County","level2short":"Clark County","level1long":"Nevada","level1short":"NV"},"city":"Las Vegas","country":"United States","countryCode":"US"},{"formattedAddress":"Las Vegas, NV, USA","latitude":36.1147074,"longitude":-115.1728497,"extra":{"googlePlaceId":"ChIJ7dBoVF7EyIARYktBuOpjhPk","confidence":0.5,"premise":null,"subpremise":null,"neighborhood":null,"establishment":null},"administrativeLevels":{"level2long":"Clark County","level2short":"Clark County","level1long":"Nevada","level1short":"NV"},"country":"United States","countryCode":"US"}],"{\"0\":\"Los Angeles, California\"}":[{"formattedAddress":"Los Angeles, CA, USA","latitude":34.0522342,"longitude":-118.2436849,"extra":{"googlePlaceId":"ChIJE9on3F3HwoAR9AhGJW_fL-I","confidence":0.5,"premise":null,"subpremise":null,"neighborhood":null,"establishment":null},"administrativeLevels":{"level2long":"Los Angeles County","level2short":"Los Angeles County","level1long":"California","level1short":"CA"},"city":"Los Angeles","country":"United States","countryCode":"US"}],"{\"0\":\"Norfolk, Virginia\"}":[{"formattedAddress":"Norfolk, VA, USA","latitude":36.8507689,"longitude":-76.28587259999999,"extra":{"googlePlaceId":"ChIJRcoiUzqXuokRCh56zn8Qmas","confidence":0.5,"premise":null,"subpremise":null,"neighborhood":null,"establishment":null},"administrativeLevels":{"level1long":"Virginia","level1short":"VA"},"city":"Norfolk","country":"United States","countryCode":"US"}],"{\"0\":\"Fort Lauderdale, Florida\"}":[{"formattedAddress":"Fort Lauderdale, FL, USA","latitude":26.1224386,"longitude":-80.13731740000001,"extra":{"googlePlaceId":"ChIJ9cr6ICcB2YgRvo6_QHW-AnY","confidence":0.5,"premise":null,"subpremise":null,"neighborhood":null,"establishment":null},"administrativeLevels":{"level2long":"Broward County","level2short":"Broward County","level1long":"Florida","level1short":"FL"},"city":"Fort Lauderdale","country":"United States","countryCode":"US"}],"{\"0\":\"New York, New York\"}":[{"formattedAddress":"New York, NY, USA","latitude":40.7127837,"longitude":-74.0059413,"extra":{"googlePlaceId":"ChIJOwg_06VPwokRYv534QaPC8g","confidence":0.5,"premise":null,"subpremise":null,"neighborhood":null,"establishment":null},"administrativeLevels":{"level1long":"New York","level1short":"NY"},"city":"New York","country":"United States","countryCode":"US"},{"formattedAddress":"New York, MO 64644, USA","latitude":39.6852874,"longitude":-93.9268836,"extra":{"googlePlaceId":"ChIJtxWVM2vuwYcR9mO37IBbf-U","confidence":0.5,"premise":null,"subpremise":null,"neighborhood":null,"establishment":null},"administrativeLevels":{"level3long":"New York Township","level3short":"New York Township","level2long":"Caldwell County","level2short":"Caldwell County","level1long":"Missouri","level1short":"MO"},"city":"New York","country":"United States","countryCode":"US","zipcode":"64644"}],"{\"0\":\"Viginia Key, Florida\"}":[{"formattedAddress":"Virginia Key, Florida, USA","latitude":25.7399644,"longitude":-80.15681339999999,"extra":{"googlePlaceId":"ChIJTf9nSq-12YgR1Syw-fraj8o","confidence":0.5,"premise":null,"subpremise":null,"neighborhood":null,"establishment":null},"administrativeLevels":{"level2long":"Miami-Dade County","level2short":"Miami-Dade County","level1long":"Florida","level1short":"FL"},"country":"United States","countryCode":"US"}],"{\"0\":\"Scottsdale, Arizona\"}":[{"formattedAddress":"Scottsdale, AZ, USA","latitude":33.4941704,"longitude":-111.9260519,"extra":{"googlePlaceId":"ChIJlyx3p9kIK4cRGOaPGBLk0iY","confidence":0.5,"premise":null,"subpremise":null,"neighborhood":null,"establishment":null},"administrativeLevels":{"level2long":"Maricopa County","level2short":"Maricopa County","level1long":"Arizona","level1short":"AZ"},"city":"Scottsdale","country":"United States","countryCode":"US"}],"{\"0\":\"Tuscaloosa, Alabama\"}":[{"formattedAddress":"Tuscaloosa, AL, USA","latitude":33.2098407,"longitude":-87.56917349999999,"extra":{"googlePlaceId":"ChIJZ0DCkS6viIgRWCuJFv37q6w","confidence":0.5,"premise":null,"subpremise":null,"neighborhood":null,"establishment":null},"administrativeLevels":{"level2long":"Tuscaloosa County","level2short":"Tuscaloosa County","level1long":"Alabama","level1short":"AL"},"city":"Tuscaloosa","country":"United States","countryCode":"US"}],"{\"0\":\"Herndon, Virginia\"}":[{"formattedAddress":"Herndon, VA, USA","latitude":38.9695545,"longitude":-77.3860976,"extra":{"googlePlaceId":"ChIJQ6ZdDwY4tokRfTVsHLUigJI","confidence":0.5,"premise":null,"subpremise":null,"neighborhood":null,"establishment":null},"administrativeLevels":{"level3long":"Dranesville","level3short":"Dranesville","level2long":"Fairfax County","level2short":"Fairfax County","level1long":"Virginia","level1short":"VA"},"city":"Herndon","country":"United States","countryCode":"US"}],"{\"0\":\"Miami, Florida\"}":[{"formattedAddress":"Miami, FL, USA","latitude":25.7616798,"longitude":-80.1917902,"extra":{"googlePlaceId":"ChIJEcHIDqKw2YgRZU-t3XHylv8","confidence":0.5,"premise":null,"subpremise":null,"neighborhood":null,"establishment":null},"administrativeLevels":{"level2long":"Miami-Dade County","level2short":"Miami-Dade County","level1long":"Florida","level1short":"FL"},"city":"Miami","country":"United States","countryCode":"US"}],"{\"0\":\"Carlsbad, California\"}":[{"formattedAddress":"Carlsbad, CA, USA","latitude":33.1580933,"longitude":-117.3505939,"extra":{"googlePlaceId":"ChIJWe47P0Vz3IARL132_JJVy6Q","confidence":0.5,"premise":null,"subpremise":null,"neighborhood":null,"establishment":null},"administrativeLevels":{"level2long":"San Diego County","level2short":"San Diego County","level1long":"California","level1short":"CA"},"city":"Carlsbad","country":"United States","countryCode":"US"}],"{\"0\":\"Tamiami, Florida\"}":[{"formattedAddress":"Tamiami, FL, USA","latitude":25.7587114,"longitude":-80.398387,"extra":{"googlePlaceId":"ChIJCc3viAi_2YgRnyfuC1olxbU","confidence":0.5,"premise":null,"subpremise":null,"neighborhood":null,"establishment":null},"administrativeLevels":{"level2long":"Miami-Dade County","level2short":"Miami-Dade County","level1long":"Florida","level1short":"FL"},"city":"Tamiami","country":"United States","countryCode":"US"}],"{\"0\":\"Jacksonville, Florida\"}":[{"formattedAddress":"Jacksonville, FL, USA","latitude":30.3321838,"longitude":-81.65565099999999,"extra":{"googlePlaceId":"ChIJ66_O8Ra35YgR4sf8ljh9zcQ","confidence":0.5,"premise":null,"subpremise":null,"neighborhood":null,"establishment":null},"administrativeLevels":{"level2long":"Duval County","level2short":"Duval County","level1long":"Florida","level1short":"FL"},"city":"Jacksonville","country":"United States","countryCode":"US"}],"{\"0\":\"New Orleans, Louisiana\"}":[{"formattedAddress":"New Orleans, LA, USA","latitude":29.95106579999999,"longitude":-90.0715323,"extra":{"googlePlaceId":"ChIJZYIRslSkIIYRtNMiXuhbBts","confidence":0.5,"premise":null,"subpremise":null,"neighborhood":null,"establishment":null},"administrativeLevels":{"level2long":"Orleans Parish","level2short":"Orleans Parish","level1long":"Louisiana","level1short":"LA"},"city":"New Orleans","country":"United States","countryCode":"US"}],"{\"0\":\"Kansas City, Missouri\"}":[{"formattedAddress":"Kansas City, MO, USA","latitude":39.0997265,"longitude":-94.5785667,"extra":{"googlePlaceId":"ChIJl5npr173wIcRolGqauYlhVU","confidence":0.5,"premise":null,"subpremise":null,"neighborhood":null,"establishment":null},"administrativeLevels":{"level2long":"Jackson County","level2short":"Jackson County","level1long":"Missouri","level1short":"MO"},"city":"Kansas City","country":"United States","countryCode":"US"}],"{\"0\":\"Ft Lauderdale, Florida\"}":[{"formattedAddress":"Fort Lauderdale, FL, USA","latitude":26.1224386,"longitude":-80.13731740000001,"extra":{"googlePlaceId":"ChIJ9cr6ICcB2YgRvo6_QHW-AnY","confidence":0.5,"premise":null,"subpremise":null,"neighborhood":null,"establishment":null},"administrativeLevels":{"level2long":"Broward County","level2short":"Broward County","level1long":"Florida","level1short":"FL"},"city":"Fort Lauderdale","country":"United States","countryCode":"US"}],"{\"0\":\"Nashville, Tennessee\"}":[{"formattedAddress":"Nashville, TN, USA","latitude":36.1626638,"longitude":-86.7816016,"extra":{"googlePlaceId":"ChIJPZDrEzLsZIgRoNrpodC5P30","confidence":0.5,"premise":null,"subpremise":null,"neighborhood":null,"establishment":null},"administrativeLevels":{"level2long":"Davidson County","level2short":"Davidson County","level1long":"Tennessee","level1short":"TN"},"city":"Nashville","country":"United States","countryCode":"US"}],"{\"0\":\"Redding, California\"}":[{"formattedAddress":"Redding, CA, USA","latitude":40.5865396,"longitude":-122.3916754,"extra":{"googlePlaceId":"ChIJLyBKO9aR0lQRVw82e-xYMx8","confidence":0.5,"premise":null,"subpremise":null,"neighborhood":null,"establishment":null},"administrativeLevels":{"level2long":"Shasta County","level2short":"Shasta County","level1long":"California","level1short":"CA"},"city":"Redding","country":"United States","countryCode":"US"}],"{\"0\":\"Newark, New Jersey\"}":[{"formattedAddress":"Newark, NJ, USA","latitude":40.735657,"longitude":-74.1723667,"extra":{"googlePlaceId":"ChIJHQ6aMnBTwokRc-T-3CrcvOE","confidence":0.5,"premise":null,"subpremise":null,"neighborhood":null,"establishment":null},"administrativeLevels":{"level2long":"Essex County","level2short":"Essex County","level1long":"New Jersey","level1short":"NJ"},"city":"Newark","country":"United States","countryCode":"US"}],"{\"0\":\"Arlignton, Washington\"}":[{"formattedAddress":"Arlington, WA, USA","latitude":48.1987118,"longitude":-122.1251418,"extra":{"googlePlaceId":"ChIJDTS08HlJhVQR1fGGoNETirQ","confidence":0.5,"premise":null,"subpremise":null,"neighborhood":null,"establishment":null},"administrativeLevels":{"level2long":"Snohomish County","level2short":"Snohomish County","level1long":"Washington","level1short":"WA"},"city":"Arlington","country":"United States","countryCode":"US"},{"formattedAddress":"Arlington, NE 68002, USA","latitude":41.45501180000001,"longitude":-96.3578639,"extra":{"googlePlaceId":"ChIJFVS6OU7ek4cRUM7lK37Tg2E","confidence":0.5,"premise":null,"subpremise":null,"neighborhood":null,"establishment":null},"administrativeLevels":{"level3long":"7","level3short":"7","level2long":"Washington County","level2short":"Washington County","level1long":"Nebraska","level1short":"NE"},"city":"Arlington","country":"United States","countryCode":"US","zipcode":"68002"}],"{\"0\":\"Long Beach, California\"}":[{"formattedAddress":"Long Beach, CA, USA","latitude":33.7700504,"longitude":-118.1937395,"extra":{"googlePlaceId":"ChIJWdeZQOjKwoARqo8qxPo6AKE","confidence":0.5,"premise":null,"subpremise":null,"neighborhood":null,"establishment":null},"administrativeLevels":{"level2long":"Los Angeles County","level2short":"Los Angeles County","level1long":"California","level1short":"CA"},"city":"Long Beach","country":"United States","countryCode":"US"}],"{\"0\":\"Orlando, Florida\"}":[{"formattedAddress":"Orlando, FL, USA","latitude":28.5383355,"longitude":-81.3792365,"extra":{"googlePlaceId":"ChIJd7zN_thz54gRnr-lPAaywwo","confidence":0.5,"premise":null,"subpremise":null,"neighborhood":null,"establishment":null},"administrativeLevels":{"level2long":"Orange County","level2short":"Orange County","level1long":"Florida","level1short":"FL"},"city":"Orlando","country":"United States","countryCode":"US"}],"{\"0\":\"Melbourne, Florida\"}":[{"formattedAddress":"Melbourne, FL, USA","latitude":28.0836269,"longitude":-80.60810889999999,"extra":{"googlePlaceId":"ChIJTZlxRywO3ogRqNIMqVSyzYs","confidence":0.5,"premise":null,"subpremise":null,"neighborhood":null,"establishment":null},"administrativeLevels":{"level2long":"Brevard County","level2short":"Brevard County","level1long":"Florida","level1short":"FL"},"city":"Melbourne","country":"United States","countryCode":"US"}],"{\"0\":\"Ormond Beach, Florida\"}":[{"formattedAddress":"Ormond Beach, FL, USA","latitude":29.2858129,"longitude":-81.0558894,"extra":{"googlePlaceId":"ChIJf1N-1Lnc5ogRPv1SUzzM-ks","confidence":0.5,"premise":null,"subpremise":null,"neighborhood":null,"establishment":null},"administrativeLevels":{"level2long":"Volusia County","level2short":"Volusia County","level1long":"Florida","level1short":"FL"},"city":"Ormond Beach","country":"United States","countryCode":"US"}],"{\"0\":\"Washington, District of Columbia\"}":[{"formattedAddress":"Washington, DC, USA","latitude":38.9071923,"longitude":-77.0368707,"extra":{"googlePlaceId":"ChIJW-T2Wt7Gt4kRKl2I1CJFUsI","confidence":0.5,"premise":null,"subpremise":null,"neighborhood":null,"establishment":null},"administrativeLevels":{"level2long":"District of Columbia","level2short":"District of Columbia","level1long":"District of Columbia","level1short":"DC"},"city":"Washington","country":"United States","countryCode":"US"}],"{\"0\":\"Anchorage, Alaska\"}":[{"formattedAddress":"Anchorage, AK, USA","latitude":61.2180556,"longitude":-149.9002778,"extra":{"googlePlaceId":"ChIJQT-zBHaRyFYR42iEp1q6fSU","confidence":0.5,"premise":null,"subpremise":null,"neighborhood":null,"establishment":null},"administrativeLevels":{"level2long":"Anchorage","level2short":"Anchorage","level1long":"Alaska","level1short":"AK"},"city":"Anchorage","country":"United States","countryCode":"US"}],"{\"0\":\"Fort Myers, Florida\"}":[{"formattedAddress":"Fort Myers, FL, USA","latitude":26.640628,"longitude":-81.8723084,"extra":{"googlePlaceId":"ChIJKVSoiQFC24gRiiW6ClMIKcY","confidence":0.5,"premise":null,"subpremise":null,"neighborhood":null,"establishment":null},"administrativeLevels":{"level2long":"Lee County","level2short":"Lee County","level1long":"Florida","level1short":"FL"},"city":"Fort Myers","country":"United States","countryCode":"US"}],"{\"0\":\"Rehoboth, Delaware\"}":[{"formattedAddress":"Delaware Ave, Somerset, MA 02726, USA","latitude":41.771686,"longitude":-71.15375999999999,"extra":{"googlePlaceId":"ChIJ4xP_W5n35IkRM2JWvQLZcn4","confidence":0.7,"premise":null,"subpremise":null,"neighborhood":null,"establishment":null},"administrativeLevels":{"level2long":"Bristol County","level2short":"Bristol County","level1long":"Massachusetts","level1short":"MA"},"streetName":"Delaware Avenue","city":"Somerset","country":"United States","countryCode":"US","zipcode":"02726"},{"formattedAddress":"Rehoboth Ave, Rehoboth Beach, DE 19971, USA","latitude":38.7150395,"longitude":-75.08991449999999,"extra":{"googlePlaceId":"ChIJjwvtL0G2uIkRaMMWp9V6QNk","confidence":0.7,"premise":null,"subpremise":null,"neighborhood":null,"establishment":null},"administrativeLevels":{"level2long":"Sussex County","level2short":"Sussex County","level1long":"Delaware","level1short":"DE"},"streetName":"Rehoboth Avenue","city":"Rehoboth Beach","country":"United States","countryCode":"US","zipcode":"19971"},{"formattedAddress":"S Rehoboth Blvd, Milford, DE 19963, USA","latitude":38.90464720000001,"longitude":-75.4094255,"extra":{"googlePlaceId":"ChIJ0w0NR8OZuIkRXh8fCL9TCDQ","confidence":0.7,"premise":null,"subpremise":null,"neighborhood":null,"establishment":null},"administrativeLevels":{"level1long":"Delaware","level1short":"DE"},"streetName":"South Rehoboth Boulevard","city":"Milford","country":"United States","countryCode":"US","zipcode":"19963"},{"formattedAddress":"N Rehoboth Blvd, Milford, DE 19963, USA","latitude":38.920941,"longitude":-75.42185719999999,"extra":{"googlePlaceId":"ChIJU21K8Y2ZuIkRHtGPum0Szek","confidence":0.7,"premise":null,"subpremise":null,"neighborhood":null,"establishment":null},"administrativeLevels":{"level2long":"Kent County","level2short":"Kent County","level1long":"Delaware","level1short":"DE"},"streetName":"North Rehoboth Boulevard","city":"Milford","country":"United States","countryCode":"US","zipcode":"19963"},{"formattedAddress":"Rehoboth Ave, Lewes, DE 19958, USA","latitude":38.7803405,"longitude":-75.1369678,"extra":{"googlePlaceId":"ChIJT8UBnbSwuIkRWSAbx180vr8","confidence":0.7,"premise":null,"subpremise":null,"neighborhood":null,"establishment":null},"administrativeLevels":{"level2long":"Sussex County","level2short":"Sussex County","level1long":"Delaware","level1short":"DE"},"streetName":"Rehoboth Avenue","city":"Lewes","country":"United States","countryCode":"US","zipcode":"19958"},{"formattedAddress":"Rehoboth Beach Gardens, Rehoboth Beach, DE 19971, USA","latitude":38.7106742,"longitude":-75.10129189999999,"extra":{"googlePlaceId":"ChIJqVH5YTa2uIkRItO8_lWgbec","confidence":0.7,"premise":null,"subpremise":null,"neighborhood":null,"establishment":null},"administrativeLevels":{"level2long":"Sussex County","level2short":"Sussex County","level1long":"Delaware","level1short":"DE"},"streetName":"Rehoboth Beach Gardens","city":"Rehoboth Beach","country":"United States","countryCode":"US","zipcode":"19971"},{"formattedAddress":"Rehoboth, Georgia 30033, USA","latitude":33.8242706,"longitude":-84.2646444,"extra":{"googlePlaceId":"ChIJ1_TlTBmo9YgRk5O1ogkoz9Y","confidence":0.5,"premise":null,"subpremise":null,"neighborhood":null,"establishment":null},"administrativeLevels":{"level2long":"DeKalb County","level2short":"Dekalb County","level1long":"Georgia","level1short":"GA"},"country":"United States","countryCode":"US","zipcode":"30033"},{"formattedAddress":"Rehoboth Beach, DE, USA","latitude":38.7209454,"longitude":-75.07601369999999,"extra":{"googlePlaceId":"ChIJpzNzfGaWuIkRamNRp-UtGGE","confidence":0.5,"premise":null,"subpremise":null,"neighborhood":null,"establishment":null},"administrativeLevels":{"level2long":"Sussex County","level2short":"Sussex County","level1long":"Delaware","level1short":"DE"},"city":"Rehoboth Beach","country":"United States","countryCode":"US"}],"{\"0\":\"Raleigh, North Carolina\"}":[{"formattedAddress":"Raleigh, NC, USA","latitude":35.7795897,"longitude":-78.6381787,"extra":{"googlePlaceId":"ChIJ9-BRny9arIkRrfARilK2kGc","confidence":0.5,"premise":null,"subpremise":null,"neighborhood":null,"establishment":null},"administrativeLevels":{"level2long":"Wake County","level2short":"Wake County","level1long":"North Carolina","level1short":"NC"},"city":"Raleigh","country":"United States","countryCode":"US"}],"{\"0\":\"Waukesha, Wisconsin\"}":[{"formattedAddress":"Waukesha, WI, USA","latitude":43.0116784,"longitude":-88.2314813,"extra":{"googlePlaceId":"ChIJV5eOlCamBYgRlZyYYTShLas","confidence":0.5,"premise":null,"subpremise":null,"neighborhood":null,"establishment":null},"administrativeLevels":{"level2long":"Waukesha County","level2short":"Waukesha County","level1long":"Wisconsin","level1short":"WI"},"city":"Waukesha","country":"United States","countryCode":"US"}],"{\"0\":\"La Belle, Florida\"}":[{"formattedAddress":"LaBelle, FL 33935, USA","latitude":26.7617322,"longitude":-81.4384092,"extra":{"googlePlaceId":"ChIJ3c9--2iD24gRxcAkYGTPaXM","confidence":0.5,"premise":null,"subpremise":null,"neighborhood":null,"establishment":null},"administrativeLevels":{"level2long":"Hendry County","level2short":"Hendry County","level1long":"Florida","level1short":"FL"},"city":"LaBelle","country":"United States","countryCode":"US","zipcode":"33935"}],"{\"0\":\"San Luis Obispo, California\"}":[{"formattedAddress":"San Luis Obispo, CA, USA","latitude":35.2827524,"longitude":-120.6596156,"extra":{"googlePlaceId":"ChIJJ8Jse77m7IARRg_vzsKQArw","confidence":0.5,"premise":null,"subpremise":null,"neighborhood":null,"establishment":null},"administrativeLevels":{"level2long":"San Luis Obispo County","level2short":"San Luis Obispo County","level1long":"California","level1short":"CA"},"city":"San Luis Obispo","country":"United States","countryCode":"US"}],"{\"0\":\"Harrisburg, Pennsylvania\"}":[{"formattedAddress":"Harrisburg, PA, USA","latitude":40.2731911,"longitude":-76.8867008,"extra":{"googlePlaceId":"ChIJl54HuBbByIkR1UaNEshCbrs","confidence":0.5,"premise":null,"subpremise":null,"neighborhood":null,"establishment":null},"administrativeLevels":{"level2long":"Dauphin County","level2short":"Dauphin County","level1long":"Pennsylvania","level1short":"PA"},"city":"Harrisburg","country":"United States","countryCode":"US"}],"{\"0\":\"Santa Ana, California\"}":[{"formattedAddress":"Santa Ana, CA, USA","latitude":33.7455731,"longitude":-117.8678338,"extra":{"googlePlaceId":"ChIJhTCCbJXb3IARvP0eHzqET8c","confidence":0.5,"premise":null,"subpremise":null,"neighborhood":null,"establishment":null},"administrativeLevels":{"level2long":"Orange County","level2short":"Orange County","level1long":"California","level1short":"CA"},"city":"Santa Ana","country":"United States","countryCode":"US"}],"{\"0\":\"Teterboro, New Jersey\"}":[{"formattedAddress":"Teterboro, NJ, USA","latitude":40.8598219,"longitude":-74.0593075,"extra":{"googlePlaceId":"ChIJ9zUCpLD5wokRNSJ6bj1IGtg","confidence":0.5,"premise":null,"subpremise":null,"neighborhood":null,"establishment":null},"administrativeLevels":{"level2long":"Bergen County","level2short":"Bergen County","level1long":"New Jersey","level1short":"NJ"},"city":"Teterboro","country":"United States","countryCode":"US"}],"{\"0\":\"Montgomery, Alabama\"}":[{"formattedAddress":"Montgomery, AL, USA","latitude":32.3668052,"longitude":-86.2999689,"extra":{"googlePlaceId":"ChIJ-YHUsJSBjogR_4VCNR1RG44","confidence":0.5,"premise":null,"subpremise":null,"neighborhood":null,"establishment":null},"administrativeLevels":{"level2long":"Montgomery County","level2short":"Montgomery County","level1long":"Alabama","level1short":"AL"},"city":"Montgomery","country":"United States","countryCode":"US"}],"{\"0\":\"San Jose, California\"}":[{"formattedAddress":"San Jose, CA, USA","latitude":37.3382082,"longitude":-121.8863286,"extra":{"googlePlaceId":"ChIJ9T_5iuTKj4ARe3GfygqMnbk","confidence":0.5,"premise":null,"subpremise":null,"neighborhood":null,"establishment":null},"administrativeLevels":{"level2long":"Santa Clara County","level2short":"Santa Clara County","level1long":"California","level1short":"CA"},"city":"San Jose","country":"United States","countryCode":"US"}],"{\"0\":\"San Carlos, California\"}":[{"formattedAddress":"San Carlos, CA, USA","latitude":37.5071591,"longitude":-122.2605222,"extra":{"googlePlaceId":"ChIJd2j8APShj4ARiGkYJJ0PePo","confidence":0.5,"premise":null,"subpremise":null,"neighborhood":null,"establishment":null},"administrativeLevels":{"level2long":"San Mateo County","level2short":"San Mateo County","level1long":"California","level1short":"CA"},"city":"San Carlos","country":"United States","countryCode":"US"}],"{\"0\":\"Treasure Cay, U.S. Virgin Islands\"}":[],"{\"0\":\"Burbank, California\"}":[{"formattedAddress":"Burbank, CA, USA","latitude":34.1808392,"longitude":-118.3089661,"extra":{"googlePlaceId":"ChIJlcUYKBWVwoAR1IofkK-RdzA","confidence":0.5,"premise":null,"subpremise":null,"neighborhood":null,"establishment":null},"administrativeLevels":{"level2long":"Los Angeles County","level2short":"Los Angeles County","level1long":"California","level1short":"CA"},"city":"Burbank","country":"United States","countryCode":"US"}],"{\"0\":\"Columbus, Ohio\"}":[{"formattedAddress":"Columbus, OH, USA","latitude":39.9611755,"longitude":-82.99879419999999,"extra":{"googlePlaceId":"ChIJcd6QucGJOIgRM7Wxz_hmMuQ","confidence":0.5,"premise":null,"subpremise":null,"neighborhood":null,"establishment":null},"administrativeLevels":{"level2long":"Franklin County","level2short":"Franklin County","level1long":"Ohio","level1short":"OH"},"city":"Columbus","country":"United States","countryCode":"US"}],"{\"0\":\"WATSONVILLE, California\"}":[{"formattedAddress":"Watsonville, CA, USA","latitude":36.910231,"longitude":-121.7568946,"extra":{"googlePlaceId":"ChIJ45W--bgIjoARpaFiI4bORds","confidence":0.5,"premise":null,"subpremise":null,"neighborhood":null,"establishment":null},"administrativeLevels":{"level2long":"Santa Cruz County","level2short":"Santa Cruz County","level1long":"California","level1short":"CA"},"city":"Watsonville","country":"United States","countryCode":"US"}],"{\"0\":\"San Juan, Puerto Rico\"}":[{"formattedAddress":"San Juan, San Juan, Puerto Rico","latitude":18.4663338,"longitude":-66.1057217,"extra":{"googlePlaceId":"ChIJbxlo4m9oA4wR3FqTXA9_a60","confidence":0.5,"premise":null,"subpremise":null,"neighborhood":null,"establishment":null},"administrativeLevels":{"level1long":"San Juan","level1short":"San Juan"},"city":"San Juan","country":"Puerto Rico","countryCode":"PR"}],"{\"0\":\"Tampa, Florida\"}":[{"formattedAddress":"Tampa, FL, USA","latitude":27.950575,"longitude":-82.4571776,"extra":{"googlePlaceId":"ChIJ4dG5s4K3wogRY7SWr4kTX6c","confidence":0.5,"premise":null,"subpremise":null,"neighborhood":null,"establishment":null},"administrativeLevels":{"level2long":"Hillsborough County","level2short":"Hillsborough County","level1long":"Florida","level1short":"FL"},"city":"Tampa","country":"United States","countryCode":"US"}],"{\"0\":\"Ontario, California\"}":[{"formattedAddress":"Ontario, CA, USA","latitude":34.0633443,"longitude":-117.6508876,"extra":{"googlePlaceId":"ChIJe2Ld6ts0w4ARkDFY-VrjAwc","confidence":0.5,"premise":null,"subpremise":null,"neighborhood":null,"establishment":null},"administrativeLevels":{"level2long":"San Bernardino County","level2short":"San Bernardino County","level1long":"California","level1short":"CA"},"city":"Ontario","country":"United States","countryCode":"US"}],"{\"0\":\"Portland, Oregon\"}":[{"formattedAddress":"Portland, OR, USA","latitude":45.5230622,"longitude":-122.6764816,"extra":{"googlePlaceId":"ChIJJ3SpfQsLlVQRkYXR9ua5Nhw","confidence":0.5,"premise":null,"subpremise":null,"neighborhood":null,"establishment":null},"administrativeLevels":{"level2long":"Multnomah County","level2short":"Multnomah County","level1long":"Oregon","level1short":"OR"},"city":"Portland","country":"United States","countryCode":"US"}],"{\"0\":\"Atlantic City, New Jersey\"}":[{"formattedAddress":"Atlantic City, NJ, USA","latitude":39.3642834,"longitude":-74.4229266,"extra":{"googlePlaceId":"ChIJIcdcblfdwIkRYlJn6UPLb0o","confidence":0.5,"premise":null,"subpremise":null,"neighborhood":null,"establishment":null},"administrativeLevels":{"level2long":"Atlantic County","level2short":"Atlantic County","level1long":"New Jersey","level1short":"NJ"},"city":"Atlantic City","country":"United States","countryCode":"US"}],"{\"0\":\"San Diego, California\"}":[{"formattedAddress":"San Diego, CA, USA","latitude":32.715738,"longitude":-117.1610838,"extra":{"googlePlaceId":"ChIJSx6SrQ9T2YARed8V_f0hOg0","confidence":0.5,"premise":null,"subpremise":null,"neighborhood":null,"establishment":null},"administrativeLevels":{"level2long":"San Diego County","level2short":"San Diego County","level1long":"California","level1short":"CA"},"city":"San Diego","country":"United States","countryCode":"US"}],"{\"0\":\"Louisville, Kentucky\"}":[{"formattedAddress":"Louisville, KY, USA","latitude":38.2526647,"longitude":-85.7584557,"extra":{"googlePlaceId":"ChIJEdVbsxoLaYgRMv1xICi009Q","confidence":0.5,"premise":null,"subpremise":null,"neighborhood":null,"establishment":null},"administrativeLevels":{"level2long":"Jefferson County","level2short":"Jefferson County","level1long":"Kentucky","level1short":"KY"},"city":"Louisville","country":"United States","countryCode":"US"}],"{\"0\":\"Orange County, Florida\"}":[{"formattedAddress":"Orange County, FL, USA","latitude":28.4844995,"longitude":-81.2518833,"extra":{"googlePlaceId":"ChIJLUsuoVaY54gRS_Ma3ZvbwUQ","confidence":0.5,"premise":null,"subpremise":null,"neighborhood":null,"establishment":null},"administrativeLevels":{"level2long":"Orange County","level2short":"Orange County","level1long":"Florida","level1short":"FL"},"country":"United States","countryCode":"US"}],"{\"0\":\"Salem, Oregon\"}":[{"formattedAddress":"Salem, OR, USA","latitude":44.9428975,"longitude":-123.0350963,"extra":{"googlePlaceId":"ChIJY5xLvPz-v1QRwlcDj-ApNPk","confidence":0.5,"premise":null,"subpremise":null,"neighborhood":null,"establishment":null},"administrativeLevels":{"level2long":"Marion County","level2short":"Marion County","level1long":"Oregon","level1short":"OR"},"city":"Salem","country":"United States","countryCode":"US"}],"{\"0\":\"Kenai, Alaska\"}":[{"formattedAddress":"Kenai, AK, USA","latitude":60.55444439999999,"longitude":-151.2583333,"extra":{"googlePlaceId":"ChIJo00hchtxxlYRPYZarP-Fjao","confidence":0.5,"premise":null,"subpremise":null,"neighborhood":null,"establishment":null},"administrativeLevels":{"level2long":"Kenai Peninsula Borough","level2short":"Kenai Peninsula Borough","level1long":"Alaska","level1short":"AK"},"city":"Kenai","country":"United States","countryCode":"US"}],"{\"0\":\"Daytona Beach, Florida\"}":[{"formattedAddress":"Daytona Beach, FL, USA","latitude":29.2108147,"longitude":-81.0228331,"extra":{"googlePlaceId":"ChIJg1YCJZTb5ogR6yrLHbc7ajY","confidence":0.5,"premise":null,"subpremise":null,"neighborhood":null,"establishment":null},"administrativeLevels":{"level2long":"Volusia County","level2short":"Volusia County","level1long":"Florida","level1short":"FL"},"city":"Daytona Beach","country":"United States","countryCode":"US"}],"{\"0\":\"Tacoma, Washington\"}":[{"formattedAddress":"Tacoma, WA, USA","latitude":47.2528768,"longitude":-122.4442906,"extra":{"googlePlaceId":"ChIJZ5VlK-5UkFQRgp6w6wecIWI","confidence":0.5,"premise":null,"subpremise":null,"neighborhood":null,"establishment":null},"administrativeLevels":{"level2long":"Pierce County","level2short":"Pierce County","level1long":"Washington","level1short":"WA"},"city":"Tacoma","country":"United States","countryCode":"US"}],"{\"0\":\"Fort Pierce, Florida\"}":[{"formattedAddress":"Fort Pierce, FL, USA","latitude":27.4467056,"longitude":-80.3256056,"extra":{"googlePlaceId":"ChIJ8bUnop_x3ogRrmeIm8QXhvA","confidence":0.5,"premise":null,"subpremise":null,"neighborhood":null,"establishment":null},"administrativeLevels":{"level2long":"St. Lucie County","level2short":"St Lucie County","level1long":"Florida","level1short":"FL"},"city":"Fort Pierce","country":"United States","countryCode":"US"}],"{\"0\":\"Indianapolis, Indiana\"}":[{"formattedAddress":"Indianapolis, IN, USA","latitude":39.768403,"longitude":-86.158068,"extra":{"googlePlaceId":"ChIJA2p5p_9Qa4gRfOq5QPadjtY","confidence":0.5,"premise":null,"subpremise":null,"neighborhood":null,"establishment":null},"administrativeLevels":{"level2long":"Marion County","level2short":"Marion County","level1long":"Indiana","level1short":"IN"},"city":"Indianapolis","country":"United States","countryCode":"US"}],"{\"0\":\"Charlotte, North Carolina\"}":[{"formattedAddress":"Charlotte, NC, USA","latitude":35.2270869,"longitude":-80.8431267,"extra":{"googlePlaceId":"ChIJgRo4_MQfVIgRZNFDv-ZQRog","confidence":0.5,"premise":null,"subpremise":null,"neighborhood":null,"establishment":null},"administrativeLevels":{"level3long":"1, Charlotte","level3short":"1, Charlotte","level2long":"Mecklenburg County","level2short":"Mecklenburg County","level1long":"North Carolina","level1short":"NC"},"city":"Charlotte","country":"United States","countryCode":"US"}],"{\"0\":\"Muskegon, Michigan\"}":[{"formattedAddress":"Muskegon, MI, USA","latitude":43.2341813,"longitude":-86.24839209999999,"extra":{"googlePlaceId":"ChIJ2Z49qcN8GYgRQCX3NJE1fiQ","confidence":0.5,"premise":null,"subpremise":null,"neighborhood":null,"establishment":null},"administrativeLevels":{"level2long":"Muskegon County","level2short":"Muskegon County","level1long":"Michigan","level1short":"MI"},"city":"Muskegon","country":"United States","countryCode":"US"}],"{\"0\":\"Chicago, Illinois\"}":[{"formattedAddress":"Chicago, IL, USA","latitude":41.8781136,"longitude":-87.6297982,"extra":{"googlePlaceId":"ChIJ7cv00DwsDogRAMDACa2m4K8","confidence":0.5,"premise":null,"subpremise":null,"neighborhood":null,"establishment":null},"administrativeLevels":{"level2long":"Cook County","level2short":"Cook County","level1long":"Illinois","level1short":"IL"},"city":"Chicago","country":"United States","countryCode":"US"}],"{\"0\":\"Ontario, CANADA\"}":[{"formattedAddress":"Ontario, Canada","latitude":51.253775,"longitude":-85.3232139,"extra":{"googlePlaceId":"ChIJrxNRX7IFzkwRCR5iKVZC-HA","confidence":0.5,"premise":null,"subpremise":null,"neighborhood":null,"establishment":null},"administrativeLevels":{"level1long":"Ontario","level1short":"ON"},"country":"Canada","countryCode":"CA"}],"{\"0\":\"Mesa, Arizona\"}":[{"formattedAddress":"Mesa, AZ, USA","latitude":33.4151843,"longitude":-111.8314724,"extra":{"googlePlaceId":"ChIJwZLFwMKnK4cRG3dOaRXCD9E","confidence":0.5,"premise":null,"subpremise":null,"neighborhood":null,"establishment":null},"administrativeLevels":{"level2long":"Maricopa County","level2short":"Maricopa County","level1long":"Arizona","level1short":"AZ"},"city":"Mesa","country":"United States","countryCode":"US"}],"{\"0\":\"Santa Rosa, California\"}":[{"formattedAddress":"Santa Rosa, CA, USA","latitude":38.440429,"longitude":-122.7140548,"extra":{"googlePlaceId":"ChIJ10fmNsk7hIARSUhPxWtlzVw","confidence":0.5,"premise":null,"subpremise":null,"neighborhood":null,"establishment":null},"administrativeLevels":{"level2long":"Sonoma County","level2short":"Sonoma County","level1long":"California","level1short":"CA"},"city":"Santa Rosa","country":"United States","countryCode":"US"}],"{\"0\":\"Wilsona Gardens, California\"}":[{"formattedAddress":"Wilsona Gardens, CA 93535, USA","latitude":34.6678072,"longitude":-117.8251969,"extra":{"googlePlaceId":"ChIJy794AXypw4AR-tW7NEEL5Lk","confidence":0.5,"premise":null,"subpremise":null,"neighborhood":null,"establishment":null},"administrativeLevels":{"level2long":"Los Angeles County","level2short":"Los Angeles County","level1long":"California","level1short":"CA"},"city":"Wilsona Gardens","country":"United States","countryCode":"US","zipcode":"93535"}],"{\"0\":\"Lancaster, California\"}":[{"formattedAddress":"Lancaster, CA, USA","latitude":34.6867846,"longitude":-118.1541632,"extra":{"googlePlaceId":"ChIJQYDoaLFawoARBz4Lfc9yxFg","confidence":0.5,"premise":null,"subpremise":null,"neighborhood":null,"establishment":null},"administrativeLevels":{"level2long":"Los Angeles County","level2short":"Los Angeles County","level1long":"California","level1short":"CA"},"city":"Lancaster","country":"United States","countryCode":"US"}],"{\"0\":\"St. Petersburg, Florida\"}":[{"formattedAddress":"St. Petersburg, FL, USA","latitude":27.7518284,"longitude":-82.6267345,"extra":{"googlePlaceId":"ChIJQao6aWPmwogR_4vUvANAzAQ","confidence":0.5,"premise":null,"subpremise":null,"neighborhood":null,"establishment":null},"administrativeLevels":{"level2long":"Pinellas County","level2short":"Pinellas County","level1long":"Florida","level1short":"FL"},"city":"Saint Petersburg","country":"United States","countryCode":"US"}],"{\"0\":\"Hollywood, Florida\"}":[{"formattedAddress":"Hollywood, FL, USA","latitude":26.0112014,"longitude":-80.1494901,"extra":{"googlePlaceId":"ChIJpzH_x2-p2YgRaLi3db561wc","confidence":0.5,"premise":null,"subpremise":null,"neighborhood":null,"establishment":null},"administrativeLevels":{"level2long":"Broward County","level2short":"Broward County","level1long":"Florida","level1short":"FL"},"city":"Hollywood","country":"United States","countryCode":"US"}],"{\"0\":\"Portland, Maine\"}":[{"formattedAddress":"Portland, ME, USA","latitude":43.66147100000001,"longitude":-70.2553259,"extra":{"googlePlaceId":"ChIJLe6wqnKcskwRKfpyM7W2nX4","confidence":0.5,"premise":null,"subpremise":null,"neighborhood":null,"establishment":null},"administrativeLevels":{"level2long":"Cumberland County","level2short":"Cumberland County","level1long":"Maine","level1short":"ME"},"city":"Portland","country":"United States","countryCode":"US"}],"{\"0\":\"El Monte, California\"}":[{"formattedAddress":"El Monte, CA, USA","latitude":34.0686206,"longitude":-118.0275667,"extra":{"googlePlaceId":"ChIJ79D2Y6TQwoARTTewpY4BD2s","confidence":0.5,"premise":null,"subpremise":null,"neighborhood":null,"establishment":null},"administrativeLevels":{"level2long":"Los Angeles County","level2short":"Los Angeles County","level1long":"California","level1short":"CA"},"city":"El Monte","country":"United States","countryCode":"US"}],"{\"0\":\"Santa Monica, California\"}":[{"formattedAddress":"Santa Monica, CA, USA","latitude":34.0194543,"longitude":-118.4911912,"extra":{"googlePlaceId":"ChIJGQCRws6kwoARq_Uj_7UKF7Q","confidence":0.5,"premise":null,"subpremise":null,"neighborhood":null,"establishment":null},"administrativeLevels":{"level2long":"Los Angeles County","level2short":"Los Angeles County","level1long":"California","level1short":"CA"},"city":"Santa Monica","country":"United States","countryCode":"US"}],"{\"0\":\"Lake Forest, California\"}":[{"formattedAddress":"Lake Forest, CA, USA","latitude":33.6469661,"longitude":-117.689218,"extra":{"googlePlaceId":"ChIJT4TjKRno3IAR5Q82kaAzSdw","confidence":0.5,"premise":null,"subpremise":null,"neighborhood":null,"establishment":null},"administrativeLevels":{"level2long":"Orange County","level2short":"Orange County","level1long":"California","level1short":"CA"},"city":"Lake Forest","country":"United States","countryCode":"US"}],"{\"0\":\"Napa, California\"}":[{"formattedAddress":"Napa, CA, USA","latitude":38.2975381,"longitude":-122.286865,"extra":{"googlePlaceId":"ChIJ797y-Of_hIARJceEMzqfYtY","confidence":0.5,"premise":null,"subpremise":null,"neighborhood":null,"establishment":null},"administrativeLevels":{"level2long":"Napa County","level2short":"Napa County","level1long":"California","level1short":"CA"},"city":"Napa","country":"United States","countryCode":"US"}],"{\"0\":\"Wilmington, Ohio\"}":[{"formattedAddress":"Wilmington, OH 45177, USA","latitude":39.4453393,"longitude":-83.8285375,"extra":{"googlePlaceId":"ChIJ7cYWaNrGQIgRA717aYZJ9QU","confidence":0.5,"premise":null,"subpremise":null,"neighborhood":null,"establishment":null},"administrativeLevels":{"level2long":"Clinton County","level2short":"Clinton County","level1long":"Ohio","level1short":"OH"},"city":"Wilmington","country":"United States","countryCode":"US","zipcode":"45177"}],"{\"0\":\"Arlington, Virginia\"}":[{"formattedAddress":"Arlington, VA, USA","latitude":38.8799697,"longitude":-77.1067698,"extra":{"googlePlaceId":"ChIJD6ene522t4kRk7D2Rchvz_g","confidence":0.5,"premise":null,"subpremise":null,"neighborhood":null,"establishment":null},"administrativeLevels":{"level2long":"Arlington County","level2short":"Arlington County","level1long":"Virginia","level1short":"VA"},"city":"Arlington","country":"United States","countryCode":"US"},{"formattedAddress":"Arlington, VA 23310, USA","latitude":37.2264859,"longitude":-76.00259439999999,"extra":{"googlePlaceId":"ChIJ2y0XhK9euokRUo7nfeHU0WM","confidence":0.5,"premise":null,"subpremise":null,"neighborhood":null,"establishment":null},"administrativeLevels":{"level3long":"1","level3short":"1","level2long":"Northampton County","level2short":"Northampton County","level1long":"Virginia","level1short":"VA"},"city":"Arlington","country":"United States","countryCode":"US","zipcode":"23310"}],"{\"0\":\"Concord, California\"}":[{"formattedAddress":"Concord, CA, USA","latitude":37.9779776,"longitude":-122.0310733,"extra":{"googlePlaceId":"ChIJhczEaaxghYAR7_8flgRgQQ4","confidence":0.5,"premise":null,"subpremise":null,"neighborhood":null,"establishment":null},"administrativeLevels":{"level2long":"Contra Costa County","level2short":"Contra Costa County","level1long":"California","level1short":"CA"},"city":"Concord","country":"United States","countryCode":"US"}],"{\"0\":\"Upland, California\"}":[{"formattedAddress":"Upland, CA, USA","latitude":34.09751,"longitude":-117.6483876,"extra":{"googlePlaceId":"ChIJzRiDRSMxw4ARF_BxDdhqqZg","confidence":0.5,"premise":null,"subpremise":null,"neighborhood":null,"establishment":null},"administrativeLevels":{"level2long":"San Bernardino County","level2short":"San Bernardino County","level1long":"California","level1short":"CA"},"city":"Upland","country":"United States","countryCode":"US"}],"{\"0\":\"Grand Forks, North Dakota\"}":[{"formattedAddress":"Grand Forks, ND, USA","latitude":47.9252568,"longitude":-97.0328547,"extra":{"googlePlaceId":"ChIJJV68WzWBxlIRWj1ffNiUaws","confidence":0.5,"premise":null,"subpremise":null,"neighborhood":null,"establishment":null},"administrativeLevels":{"level2long":"Grand Forks County","level2short":"Grand Forks County","level1long":"North Dakota","level1short":"ND"},"city":"Grand Forks","country":"United States","countryCode":"US"}],"{\"0\":\"Springfield, Missouri\"}":[{"formattedAddress":"Springfield, MO, USA","latitude":37.2089572,"longitude":-93.29229889999999,"extra":{"googlePlaceId":"ChIJP5jIRfdiz4cRoA1pHrNs_Ws","confidence":0.5,"premise":null,"subpremise":null,"neighborhood":null,"establishment":null},"administrativeLevels":{"level2long":"Greene County","level2short":"Greene County","level1long":"Missouri","level1short":"MO"},"city":"Springfield","country":"United States","countryCode":"US"}],"{\"0\":\"Providence, Rhode Island\"}":[{"formattedAddress":"Providence, RI, USA","latitude":41.8239891,"longitude":-71.4128343,"extra":{"googlePlaceId":"ChIJXXN-Q-BE5IkRJ7azSE1832k","confidence":0.5,"premise":null,"subpremise":null,"neighborhood":null,"establishment":null},"administrativeLevels":{"level2long":"Providence County","level2short":"Providence County","level1long":"Rhode Island","level1short":"RI"},"city":"Providence","country":"United States","countryCode":"US"}],"{\"0\":\"Ft. Pierce, Florida\"}":[{"formattedAddress":"Fort Pierce, FL, USA","latitude":27.4467056,"longitude":-80.3256056,"extra":{"googlePlaceId":"ChIJ8bUnop_x3ogRrmeIm8QXhvA","confidence":0.5,"premise":null,"subpremise":null,"neighborhood":null,"establishment":null},"administrativeLevels":{"level2long":"St. Lucie County","level2short":"St Lucie County","level1long":"Florida","level1short":"FL"},"city":"Fort Pierce","country":"United States","countryCode":"US"}],"{\"0\":\"Binghamton, New York\"}":[{"formattedAddress":"Binghamton, NY, USA","latitude":42.09868669999999,"longitude":-75.91797380000001,"extra":{"googlePlaceId":"ChIJ0bet33Lv2okRfzPt9wOXjwY","confidence":0.5,"premise":null,"subpremise":null,"neighborhood":null,"establishment":null},"administrativeLevels":{"level2long":"Broome County","level2short":"Broome County","level1long":"New York","level1short":"NY"},"city":"Binghamton","country":"United States","countryCode":"US"}],"{\"0\":\"Monticello, Georgia\"}":[{"formattedAddress":"Monticello, GA 31064, USA","latitude":33.3048479,"longitude":-83.6832289,"extra":{"googlePlaceId":"ChIJqScseCIi9IgRKQJOP4YvNMs","confidence":0.5,"premise":null,"subpremise":null,"neighborhood":null,"establishment":null},"administrativeLevels":{"level2long":"Jasper County","level2short":"Jasper County","level1long":"Georgia","level1short":"GA"},"city":"Monticello","country":"United States","countryCode":"US","zipcode":"31064"}],"{\"0\":\"Reading, Pennsylvania\"}":[{"formattedAddress":"Reading, PA, USA","latitude":40.3356483,"longitude":-75.9268747,"extra":{"googlePlaceId":"ChIJuaiGUMpwxokR8Bm_9Uml7uI","confidence":0.5,"premise":null,"subpremise":null,"neighborhood":null,"establishment":null},"administrativeLevels":{"level3long":"Exeter Township","level3short":"Exeter Township","level2long":"Berks County","level2short":"Berks County","level1long":"Pennsylvania","level1short":"PA"},"city":"Reading","country":"United States","countryCode":"US"}],"{\"0\":\"Colts Neck, New Jersey\"}":[{"formattedAddress":"Colts Neck, NJ, USA","latitude":40.2876108,"longitude":-74.1723652,"extra":{"googlePlaceId":"ChIJd48y5lAswokR6OKYnOoz21g","confidence":0.5,"premise":null,"subpremise":null,"neighborhood":null,"establishment":null},"administrativeLevels":{"level3long":"Colts Neck","level3short":"Colts Neck","level2long":"Monmouth County","level2short":"Monmouth County","level1long":"New Jersey","level1short":"NJ"},"country":"United States","countryCode":"US"}],"{\"0\":\"Phoenix, Arizona\"}":[{"formattedAddress":"Phoenix, AZ, USA","latitude":33.4483771,"longitude":-112.0740373,"extra":{"googlePlaceId":"ChIJy3mhUO0SK4cRrBtKNfjHaYw","confidence":0.5,"premise":null,"subpremise":null,"neighborhood":null,"establishment":null},"administrativeLevels":{"level2long":"Maricopa County","level2short":"Maricopa County","level1long":"Arizona","level1short":"AZ"},"city":"Phoenix","country":"United States","countryCode":"US"}],"{\"0\":\"Knoxville, Tennessee\"}":[{"formattedAddress":"Knoxville, TN, USA","latitude":35.9606384,"longitude":-83.9207392,"extra":{"googlePlaceId":"ChIJqULORiIWXIgRxTT1xNqS6ns","confidence":0.5,"premise":null,"subpremise":null,"neighborhood":null,"establishment":null},"administrativeLevels":{"level2long":"Knox County","level2short":"Knox County","level1long":"Tennessee","level1short":"TN"},"city":"Knoxville","country":"United States","countryCode":"US"}],"{\"0\":\"Portsmouth, New Hampshire\"}":[{"formattedAddress":"Portsmouth, NH, USA","latitude":43.0717552,"longitude":-70.7625532,"extra":{"googlePlaceId":"ChIJKaTUSnW_4okRzk48SGm0S2U","confidence":0.5,"premise":null,"subpremise":null,"neighborhood":null,"establishment":null},"administrativeLevels":{"level2long":"Rockingham County","level2short":"Rockingham County","level1long":"New Hampshire","level1short":"NH"},"city":"Portsmouth","country":"United States","countryCode":"US"}],"{\"0\":\"Compton, California\"}":[{"formattedAddress":"Compton, CA, USA","latitude":33.8958492,"longitude":-118.2200712,"extra":{"googlePlaceId":"ChIJTVsdf2vLwoARQstbkZrOawU","confidence":0.5,"premise":null,"subpremise":null,"neighborhood":null,"establishment":null},"administrativeLevels":{"level2long":"Los Angeles County","level2short":"Los Angeles County","level1long":"California","level1short":"CA"},"city":"Compton","country":"United States","countryCode":"US"}],"{\"0\":\"Healdsburg, California\"}":[{"formattedAddress":"Healdsburg, CA 95448, USA","latitude":38.6104658,"longitude":-122.8691609,"extra":{"googlePlaceId":"ChIJs-FOdNIQhIARuVw3tunU7X8","confidence":0.5,"premise":null,"subpremise":null,"neighborhood":null,"establishment":null},"administrativeLevels":{"level2long":"Sonoma County","level2short":"Sonoma County","level1long":"California","level1short":"CA"},"city":"Healdsburg","country":"United States","countryCode":"US","zipcode":"95448"}],"{\"0\":\"Lihue, Hawaii\"}":[{"formattedAddress":"Lihue, HI 96766, USA","latitude":21.9811111,"longitude":-159.3711111,"extra":{"googlePlaceId":"ChIJN7YiXoAeB3wRSCJF9-ghCfU","confidence":0.5,"premise":null,"subpremise":null,"neighborhood":null,"establishment":null},"administrativeLevels":{"level2long":"Kauai County","level2short":"Kauai County","level1long":"Hawaii","level1short":"HI"},"city":"Lihue","country":"United States","countryCode":"US","zipcode":"96766"}],"{\"0\":\"Palo Alto, California\"}":[{"formattedAddress":"Palo Alto, CA, USA","latitude":37.4418834,"longitude":-122.1430195,"extra":{"googlePlaceId":"ChIJORy6nXuwj4ARz3b1NVL1Hw4","confidence":0.5,"premise":null,"subpremise":null,"neighborhood":null,"establishment":null},"administrativeLevels":{"level2long":"Santa Clara County","level2short":"Santa Clara County","level1long":"California","level1short":"CA"},"city":"Palo Alto","country":"United States","countryCode":"US"}],"{\"0\":\"Hayward, California\"}":[{"formattedAddress":"Hayward, CA, USA","latitude":37.6688205,"longitude":-122.0807964,"extra":{"googlePlaceId":"ChIJfVkBtjGUj4ARwDlpwt50BAc","confidence":0.5,"premise":null,"subpremise":null,"neighborhood":null,"establishment":null},"administrativeLevels":{"level2long":"Alameda County","level2short":"Alameda County","level1long":"California","level1short":"CA"},"city":"Hayward","country":"United States","countryCode":"US"},{"formattedAddress":"Hayward, CA 95329, USA","latitude":37.64277999999999,"longitude":-120.37028,"extra":{"googlePlaceId":"ChIJqaqWiAslkYARqADWJ1S8XHM","confidence":0.5,"premise":null,"subpremise":null,"neighborhood":null,"establishment":null},"administrativeLevels":{"level2long":"Mariposa County","level2short":"Mariposa County","level1long":"California","level1short":"CA"},"city":"Hayward","country":"United States","countryCode":"US","zipcode":"95329"}],"{\"0\":\"Livermore, California\"}":[{"formattedAddress":"Livermore, CA, USA","latitude":37.6818745,"longitude":-121.7680088,"extra":{"googlePlaceId":"ChIJcSBaOIblj4ARcdhryzEi05g","confidence":0.5,"premise":null,"subpremise":null,"neighborhood":null,"establishment":null},"administrativeLevels":{"level2long":"Alameda County","level2short":"Alameda County","level1long":"California","level1short":"CA"},"city":"Livermore","country":"United States","countryCode":"US"}],"{\"0\":\"Winchester, Virginia\"}":[{"formattedAddress":"Winchester, VA, USA","latitude":39.1856597,"longitude":-78.1633341,"extra":{"googlePlaceId":"ChIJwUpnQPfutYkRhIEWnA8KtZE","confidence":0.5,"premise":null,"subpremise":null,"neighborhood":null,"establishment":null},"administrativeLevels":{"level1long":"Virginia","level1short":"VA"},"city":"Winchester","country":"United States","countryCode":"US"}],"{\"0\":\"Addison, Texas\"}":[{"formattedAddress":"Addison, TX, USA","latitude":32.96179,"longitude":-96.82916850000001,"extra":{"googlePlaceId":"ChIJOThsZkohTIYRhvmYx7ZKWeY","confidence":0.5,"premise":null,"subpremise":null,"neighborhood":null,"establishment":null},"administrativeLevels":{"level2long":"Dallas County","level2short":"Dallas County","level1long":"Texas","level1short":"TX"},"city":"Addison","country":"United States","countryCode":"US"}],"{\"0\":\"Seattle, Washington\"}":[{"formattedAddress":"Seattle, WA, USA","latitude":47.6062095,"longitude":-122.3320708,"extra":{"googlePlaceId":"ChIJVTPokywQkFQRmtVEaUZlJRA","confidence":0.5,"premise":null,"subpremise":null,"neighborhood":null,"establishment":null},"administrativeLevels":{"level2long":"King County","level2short":"King County","level1long":"Washington","level1short":"WA"},"city":"Seattle","country":"United States","countryCode":"US"}],"{\"0\":\"Dallas, Texas\"}":[{"formattedAddress":"Dallas, TX, USA","latitude":32.7766642,"longitude":-96.79698789999999,"extra":{"googlePlaceId":"ChIJS5dFe_cZTIYRj2dH9qSb7Lk","confidence":0.5,"premise":null,"subpremise":null,"neighborhood":null,"establishment":null},"administrativeLevels":{"level2long":"Dallas County","level2short":"Dallas County","level1long":"Texas","level1short":"TX"},"city":"Dallas","country":"United States","countryCode":"US"}],"{\"0\":\"Madison, Wisconsin\"}":[{"formattedAddress":"Madison, WI, USA","latitude":43.0730517,"longitude":-89.4012302,"extra":{"googlePlaceId":"ChIJ_xkgOm1TBogRmEFIurX8DE4","confidence":0.5,"premise":null,"subpremise":null,"neighborhood":null,"establishment":null},"administrativeLevels":{"level2long":"Dane County","level2short":"Dane County","level1long":"Wisconsin","level1short":"WI"},"city":"Madison","country":"United States","countryCode":"US"}],"{\"0\":\"Manchester, New Hampshire\"}":[{"formattedAddress":"Manchester, NH, USA","latitude":42.9956397,"longitude":-71.4547891,"extra":{"googlePlaceId":"ChIJo2xmaNZO4okReXE1H0YyBGs","confidence":0.5,"premise":null,"subpremise":null,"neighborhood":null,"establishment":null},"administrativeLevels":{"level2long":"Hillsborough County","level2short":"Hillsborough County","level1long":"New Hampshire","level1short":"NH"},"city":"Manchester","country":"United States","countryCode":"US"}],"{\"0\":\"Olympia, Washington\"}":[{"formattedAddress":"Olympia, WA, USA","latitude":47.0378741,"longitude":-122.9006951,"extra":{"googlePlaceId":"ChIJaVUorsHJkVQRgxuI4pdhFE8","confidence":0.5,"premise":null,"subpremise":null,"neighborhood":null,"establishment":null},"administrativeLevels":{"level2long":"Thurston County","level2short":"Thurston County","level1long":"Washington","level1short":"WA"},"city":"Olympia","country":"United States","countryCode":"US"}],"{\"0\":\"Salt Lake City, Utah\"}":[{"formattedAddress":"Salt Lake City, UT, USA","latitude":40.7607793,"longitude":-111.8910474,"extra":{"googlePlaceId":"ChIJ7THRiJQ9UocRyjFNSKC3U1s","confidence":0.5,"premise":null,"subpremise":null,"neighborhood":null,"establishment":null},"administrativeLevels":{"level2long":"Salt Lake County","level2short":"Salt Lake County","level1long":"Utah","level1short":"UT"},"city":"Salt Lake City","country":"United States","countryCode":"US"}],"{\"0\":\"Peggs, Oklahoma\"}":[{"formattedAddress":"Peggs, OK, USA","latitude":36.0812334,"longitude":-95.0995478,"extra":{"googlePlaceId":"ChIJb95s42IetocRwOADrp5STZ0","confidence":0.5,"premise":null,"subpremise":null,"neighborhood":null,"establishment":null},"administrativeLevels":{"level2long":"Cherokee County","level2short":"Cherokee County","level1long":"Oklahoma","level1short":"OK"},"city":"Peggs","country":"United States","countryCode":"US"}],"{\"0\":\"Alma, Georgia\"}":[{"formattedAddress":"Alma, GA 31510, USA","latitude":31.5393701,"longitude":-82.4623557,"extra":{"googlePlaceId":"ChIJD-mZI4AZ8IgR0NwYldHbUGg","confidence":0.5,"premise":null,"subpremise":null,"neighborhood":null,"establishment":null},"administrativeLevels":{"level2long":"Bacon County","level2short":"Bacon County","level1long":"Georgia","level1short":"GA"},"city":"Alma","country":"United States","countryCode":"US","zipcode":"31510"}],"{\"0\":\"Philadelphia, Pennsylvania\"}":[{"formattedAddress":"Philadelphia, PA, USA","latitude":39.9525839,"longitude":-75.1652215,"extra":{"googlePlaceId":"ChIJ60u11Ni3xokRwVg-jNgU9Yk","confidence":0.5,"premise":null,"subpremise":null,"neighborhood":null,"establishment":null},"administrativeLevels":{"level2long":"Philadelphia County","level2short":"Philadelphia County","level1long":"Pennsylvania","level1short":"PA"},"city":"Philadelphia","country":"United States","countryCode":"US"}],"{\"0\":\"Allegheny, Pennsylvania\"}":[{"formattedAddress":"Allegheny County, PA, USA","latitude":40.4450813,"longitude":-80.0087746,"extra":{"googlePlaceId":"ChIJu-PIH-y5NIgRVFV1McCaCyw","confidence":0.5,"premise":null,"subpremise":null,"neighborhood":null,"establishment":null},"administrativeLevels":{"level2long":"Allegheny County","level2short":"Allegheny County","level1long":"Pennsylvania","level1short":"PA"},"country":"United States","countryCode":"US"}],"{\"0\":\"Woods Corner, Maryland\"}":[{"formattedAddress":"Woods Corner, Camp Springs, MD 20746, USA","latitude":38.8217801,"longitude":-76.9208067,"extra":{"googlePlaceId":"ChIJ7Tk0LPi7t4kRTgjwauuuhPk","confidence":0.5,"premise":null,"subpremise":null,"neighborhood":"Woods Corner","establishment":null},"administrativeLevels":{"level3long":"6, Spauldings","level3short":"6, Spauldings","level2long":"Prince George's County","level2short":"Prince George's County","level1long":"Maryland","level1short":"MD"},"city":"Camp Springs","country":"United States","countryCode":"US","zipcode":"20746"}],"{\"0\":\"Bakersfield, California\"}":[{"formattedAddress":"Bakersfield, CA, USA","latitude":35.3732921,"longitude":-119.0187125,"extra":{"googlePlaceId":"ChIJDcuUuchr6oARyHT-mAkMNlk","confidence":0.5,"premise":null,"subpremise":null,"neighborhood":null,"establishment":null},"administrativeLevels":{"level2long":"Kern County","level2short":"Kern County","level1long":"California","level1short":"CA"},"city":"Bakersfield","country":"United States","countryCode":"US"}],"{\"0\":\"Glendale, Arizona\"}":[{"formattedAddress":"Glendale, AZ, USA","latitude":33.5386523,"longitude":-112.1859866,"extra":{"googlePlaceId":"ChIJN51nLScjK4cRVDuNgwtDFJ8","confidence":0.5,"premise":null,"subpremise":null,"neighborhood":null,"establishment":null},"administrativeLevels":{"level2long":"Maricopa County","level2short":"Maricopa County","level1long":"Arizona","level1short":"AZ"},"city":"Glendale","country":"United States","countryCode":"US"}],"{\"0\":\"New port, Rhode Island\"}":[{"formattedAddress":"Newport, RI, USA","latitude":41.4901024,"longitude":-71.3128285,"extra":{"googlePlaceId":"ChIJa5cJBbe65YkRIW8vLPeWXs4","confidence":0.5,"premise":null,"subpremise":null,"neighborhood":null,"establishment":null},"administrativeLevels":{"level2long":"Newport County","level2short":"Newport County","level1long":"Rhode Island","level1short":"RI"},"city":"Newport","country":"United States","countryCode":"US"}],"{\"0\":\"Eugene, Oregon\"}":[{"formattedAddress":"Eugene, OR, USA","latitude":44.0520691,"longitude":-123.0867536,"extra":{"googlePlaceId":"ChIJGRlQrLAZwVQRTYlDSolh7Fc","confidence":0.5,"premise":null,"subpremise":null,"neighborhood":null,"establishment":null},"administrativeLevels":{"level2long":"Lane County","level2short":"Lane County","level1long":"Oregon","level1short":"OR"},"city":"Eugene","country":"United States","countryCode":"US"}],"{\"0\":\"Kalispell, Montana\"}":[{"formattedAddress":"Kalispell, MT 59901, USA","latitude":48.1919889,"longitude":-114.3168131,"extra":{"googlePlaceId":"ChIJR8LqnJVQZlMRYrtaHdq9H68","confidence":0.5,"premise":null,"subpremise":null,"neighborhood":null,"establishment":null},"administrativeLevels":{"level2long":"Flathead County","level2short":"Flathead County","level1long":"Montana","level1short":"MT"},"city":"Kalispell","country":"United States","countryCode":"US","zipcode":"59901"}],"{\"0\":\"Farmingdale, New York\"}":[{"formattedAddress":"Farmingdale, NY 11735, USA","latitude":40.7325997,"longitude":-73.4454009,"extra":{"googlePlaceId":"ChIJHzVsCLwq6IkRe8RPCBLpJxU","confidence":0.5,"premise":null,"subpremise":null,"neighborhood":null,"establishment":null},"administrativeLevels":{"level3long":"Oyster Bay","level3short":"Oyster Bay","level2long":"Nassau County","level2short":"Nassau County","level1long":"New York","level1short":"NY"},"city":"Farmingdale","country":"United States","countryCode":"US","zipcode":"11735"}],"{\"0\":\"New Bedford, Massachusetts\"}":[{"formattedAddress":"New Bedford, MA, USA","latitude":41.6362152,"longitude":-70.93420499999999,"extra":{"googlePlaceId":"ChIJgRwjDWrk5IkRuZNhYNSfm38","confidence":0.5,"premise":null,"subpremise":null,"neighborhood":null,"establishment":null},"administrativeLevels":{"level2long":"Bristol County","level2short":"Bristol County","level1long":"Massachusetts","level1short":"MA"},"city":"New Bedford","country":"United States","countryCode":"US"}],"{\"0\":\"Atlanta, Georgia\"}":[{"formattedAddress":"Atlanta, GA, USA","latitude":33.7489954,"longitude":-84.3879824,"extra":{"googlePlaceId":"ChIJjQmTaV0E9YgRC2MLmS_e_mY","confidence":0.5,"premise":null,"subpremise":null,"neighborhood":null,"establishment":null},"administrativeLevels":{"level2long":"Fulton County","level2short":"Fulton County","level1long":"Georgia","level1short":"GA"},"city":"Atlanta","country":"United States","countryCode":"US"}],"{\"0\":\"Memphis, Tennessee\"}":[{"formattedAddress":"Memphis, TN, USA","latitude":35.1495343,"longitude":-90.0489801,"extra":{"googlePlaceId":"ChIJRZdD6h5-1YcR_rYaYBXzk9E","confidence":0.5,"premise":null,"subpremise":null,"neighborhood":null,"establishment":null},"administrativeLevels":{"level2long":"Shelby County","level2short":"Shelby County","level1long":"Tennessee","level1short":"TN"},"city":"Memphis","country":"United States","countryCode":"US"}],"{\"0\":\"Islip, New York\"}":[{"formattedAddress":"Islip, NY, USA","latitude":40.7298207,"longitude":-73.2103934,"extra":{"googlePlaceId":"ChIJ-z6OB4wz6IkR0M9glY5oFsY","confidence":0.5,"premise":null,"subpremise":null,"neighborhood":null,"establishment":null},"administrativeLevels":{"level3long":"Islip","level3short":"Islip","level2long":"Suffolk County","level2short":"Suffolk County","level1long":"New York","level1short":"NY"},"city":"Islip","country":"United States","countryCode":"US"}],"{\"0\":\"DENVER, Colorado\"}":[{"formattedAddress":"Denver, CO, USA","latitude":39.7392358,"longitude":-104.990251,"extra":{"googlePlaceId":"ChIJzxcfI6qAa4cR1jaKJ_j0jhE","confidence":0.5,"premise":null,"subpremise":null,"neighborhood":null,"establishment":null},"administrativeLevels":{"level2long":"Denver County","level2short":"Denver County","level1long":"Colorado","level1short":"CO"},"city":"Denver","country":"United States","countryCode":"US"}],"{\"0\":\"Philadeplhia, Pennsylvania\"}":[{"formattedAddress":"Philadelphia, PA, USA","latitude":39.9525839,"longitude":-75.1652215,"extra":{"googlePlaceId":"ChIJ60u11Ni3xokRwVg-jNgU9Yk","confidence":0.5,"premise":null,"subpremise":null,"neighborhood":null,"establishment":null},"administrativeLevels":{"level2long":"Philadelphia County","level2short":"Philadelphia County","level1long":"Pennsylvania","level1short":"PA"},"city":"Philadelphia","country":"United States","countryCode":"US"}],"{\"0\":\"Boise, Idaho\"}":[{"formattedAddress":"Boise, ID, USA","latitude":43.6187102,"longitude":-116.2146068,"extra":{"googlePlaceId":"ChIJnbRH6XLxrlQRm51nNpuYW5o","confidence":0.5,"premise":null,"subpremise":null,"neighborhood":null,"establishment":null},"administrativeLevels":{"level2long":"Ada County","level2short":"Ada County","level1long":"Idaho","level1short":"ID"},"city":"Boise","country":"United States","countryCode":"US"}],"{\"0\":\"Seattle , Washington\"}":[{"formattedAddress":"Seattle, WA, USA","latitude":47.6062095,"longitude":-122.3320708,"extra":{"googlePlaceId":"ChIJVTPokywQkFQRmtVEaUZlJRA","confidence":0.5,"premise":null,"subpremise":null,"neighborhood":null,"establishment":null},"administrativeLevels":{"level2long":"King County","level2short":"King County","level1long":"Washington","level1short":"WA"},"city":"Seattle","country":"United States","countryCode":"US"}],"{\"0\":\"Stamford, Connecticut\"}":[{"formattedAddress":"Stamford, CT, USA","latitude":41.0534302,"longitude":-73.5387341,"extra":{"googlePlaceId":"ChIJC7zHsmShwokRbrc0nIuGQ4c","confidence":0.5,"premise":null,"subpremise":null,"neighborhood":null,"establishment":null},"administrativeLevels":{"level2long":"Fairfield County","level2short":"Fairfield County","level1long":"Connecticut","level1short":"CT"},"city":"Stamford","country":"United States","countryCode":"US"}],"{\"0\":\"Chino, California\"}":[{"formattedAddress":"Chino, CA, USA","latitude":34.0122346,"longitude":-117.688944,"extra":{"googlePlaceId":"ChIJJ4l8PSkzw4ARhWfdoJje2j8","confidence":0.5,"premise":null,"subpremise":null,"neighborhood":null,"establishment":null},"administrativeLevels":{"level2long":"San Bernardino County","level2short":"San Bernardino County","level1long":"California","level1short":"CA"},"city":"Chino","country":"United States","countryCode":"US"}],"{\"0\":\"Pensacola, Florida\"}":[{"formattedAddress":"Pensacola, FL, USA","latitude":30.42130899999999,"longitude":-87.2169149,"extra":{"googlePlaceId":"ChIJu6rLrEW_kIgRfGV5MW6axqc","confidence":0.5,"premise":null,"subpremise":null,"neighborhood":null,"establishment":null},"administrativeLevels":{"level2long":"Escambia County","level2short":"Escambia County","level1long":"Florida","level1short":"FL"},"city":"Pensacola","country":"United States","countryCode":"US"}],"{\"0\":\"Austin, Texas\"}":[{"formattedAddress":"Austin, TX, USA","latitude":30.267153,"longitude":-97.7430608,"extra":{"googlePlaceId":"ChIJLwPMoJm1RIYRetVp1EtGm10","confidence":0.5,"premise":null,"subpremise":null,"neighborhood":null,"establishment":null},"administrativeLevels":{"level2long":"Travis County","level2short":"Travis County","level1long":"Texas","level1short":"TX"},"city":"Austin","country":"United States","countryCode":"US"}],"{\"0\":\"Honolulu, Hawaii\"}":[{"formattedAddress":"Honolulu, HI, USA","latitude":21.3069444,"longitude":-157.8583333,"extra":{"googlePlaceId":"ChIJTUbDjDsYAHwRbJen81_1KEs","confidence":0.5,"premise":null,"subpremise":null,"neighborhood":null,"establishment":null},"administrativeLevels":{"level2long":"Honolulu County","level2short":"Honolulu County","level1long":"Hawaii","level1short":"HI"},"city":"Honolulu","country":"United States","countryCode":"US"}],"{\"0\":\"Van Nuys, California\"}":[{"formattedAddress":"Van Nuys, Los Angeles, CA, USA","latitude":34.1898566,"longitude":-118.451357,"extra":{"googlePlaceId":"ChIJa-i6-hqXwoARSIjZDHu_cMg","confidence":0.5,"premise":null,"subpremise":null,"neighborhood":"Van Nuys","establishment":null},"administrativeLevels":{"level2long":"Los Angeles County","level2short":"Los Angeles County","level1long":"California","level1short":"CA"},"city":"Los Angeles","country":"United States","countryCode":"US"}],"{\"0\":\"Hotsprings, Virginia\"}":[{"formattedAddress":"Hot Springs, VA, USA","latitude":37.9993993,"longitude":-79.831587,"extra":{"googlePlaceId":"ChIJaWYv0NWWTIgRuLrpYLoRrj0","confidence":0.5,"premise":null,"subpremise":null,"neighborhood":null,"establishment":null},"administrativeLevels":{"level3long":"Cedar Creek","level3short":"Cedar Creek","level2long":"Bath County","level2short":"Bath County","level1long":"Virginia","level1short":"VA"},"city":"Hot Springs","country":"United States","countryCode":"US"}],"{\"0\":\"Worcester, Massachusetts\"}":[{"formattedAddress":"Worcester, MA, USA","latitude":42.2625932,"longitude":-71.8022934,"extra":{"googlePlaceId":"ChIJDYsqWlgG5IkRbU3Kf9h9E54","confidence":0.5,"premise":null,"subpremise":null,"neighborhood":null,"establishment":null},"administrativeLevels":{"level2long":"Worcester County","level2short":"Worcester County","level1long":"Massachusetts","level1short":"MA"},"city":"Worcester","country":"United States","countryCode":"US"}],"{\"0\":\"Ft. Myers, Florida\"}":[{"formattedAddress":"Fort Myers, FL, USA","latitude":26.640628,"longitude":-81.8723084,"extra":{"googlePlaceId":"ChIJKVSoiQFC24gRiiW6ClMIKcY","confidence":0.5,"premise":null,"subpremise":null,"neighborhood":null,"establishment":null},"administrativeLevels":{"level2long":"Lee County","level2short":"Lee County","level1long":"Florida","level1short":"FL"},"city":"Fort Myers","country":"United States","countryCode":"US"}],"{\"0\":\"Arlington, Texas\"}":[{"formattedAddress":"Arlington, TX, USA","latitude":32.735687,"longitude":-97.10806559999999,"extra":{"googlePlaceId":"ChIJ05gI5NJiToYRUVOgH6z2Xgs","confidence":0.5,"premise":null,"subpremise":null,"neighborhood":null,"establishment":null},"administrativeLevels":{"level2long":"Tarrant County","level2short":"Tarrant County","level1long":"Texas","level1short":"TX"},"city":"Arlington","country":"United States","countryCode":"US"}],"{\"0\":\"Renton, Washington\"}":[{"formattedAddress":"Renton, WA, USA","latitude":47.48287759999999,"longitude":-122.2170661,"extra":{"googlePlaceId":"ChIJI2-7A8wIkFQRn7u6FkeyQs0","confidence":0.5,"premise":null,"subpremise":null,"neighborhood":null,"establishment":null},"administrativeLevels":{"level2long":"King County","level2short":"King County","level1long":"Washington","level1short":"WA"},"city":"Renton","country":"United States","countryCode":"US"}],"{\"0\":\"Manassas, Virginia\"}":[{"formattedAddress":"Manassas, VA, USA","latitude":38.7509488,"longitude":-77.47526669999999,"extra":{"googlePlaceId":"ChIJi9Zl1IBbtokRUuf7tl6bUoM","confidence":0.5,"premise":null,"subpremise":null,"neighborhood":null,"establishment":null},"administrativeLevels":{"level1long":"Virginia","level1short":"VA"},"city":"Manassas","country":"United States","countryCode":"US"}],"{\"0\":\"Federal Heights, Colorado\"}":[{"formattedAddress":"Federal Heights, CO, USA","latitude":39.8596261,"longitude":-105.0158511,"extra":{"googlePlaceId":"ChIJk1XYpjB2bIcRx040h5QhSR4","confidence":0.5,"premise":null,"subpremise":null,"neighborhood":null,"establishment":null},"administrativeLevels":{"level2long":"Adams County","level2short":"Adams County","level1long":"Colorado","level1short":"CO"},"city":"Federal Heights","country":"United States","countryCode":"US"}],"{\"0\":\"Hallendale Beach, Florida\"}":[{"formattedAddress":"Hallandale Beach, FL, USA","latitude":25.9812024,"longitude":-80.14837899999999,"extra":{"googlePlaceId":"ChIJ0ZPgQIir2YgRMp6a8ZTkGc8","confidence":0.5,"premise":null,"subpremise":null,"neighborhood":null,"establishment":null},"administrativeLevels":{"level2long":"Broward County","level2short":"Broward County","level1long":"Florida","level1short":"FL"},"city":"Hallandale Beach","country":"United States","countryCode":"US"}],"{\"0\":\"Oakland, California\"}":[{"formattedAddress":"Oakland, CA, USA","latitude":37.8043637,"longitude":-122.2711137,"extra":{"googlePlaceId":"ChIJA-2qKIt9hYARZ5N1NdUVtHE","confidence":0.5,"premise":null,"subpremise":null,"neighborhood":null,"establishment":null},"administrativeLevels":{"level2long":"Alameda County","level2short":"Alameda County","level1long":"California","level1short":"CA"},"city":"Oakland","country":"United States","countryCode":"US"}],"{\"0\":\"Lawrence, Massachusetts\"}":[{"formattedAddress":"Lawrence, MA, USA","latitude":42.7070354,"longitude":-71.1631137,"extra":{"googlePlaceId":"ChIJ772KcsAH44kR29UfTrU8HY0","confidence":0.5,"premise":null,"subpremise":null,"neighborhood":null,"establishment":null},"administrativeLevels":{"level2long":"Essex County","level2short":"Essex County","level1long":"Massachusetts","level1short":"MA"},"city":"Lawrence","country":"United States","countryCode":"US"}],"{\"0\":\"Norwood, Massachusetts\"}":[{"formattedAddress":"Norwood, MA, USA","latitude":42.19439089999999,"longitude":-71.19896949999999,"extra":{"googlePlaceId":"ChIJ8aj1Cyl-5IkRWZFiceIfxVI","confidence":0.5,"premise":null,"subpremise":null,"neighborhood":null,"establishment":null},"administrativeLevels":{"level2long":"Norfolk County","level2short":"Norfolk County","level1long":"Massachusetts","level1short":"MA"},"city":"Norwood","country":"United States","countryCode":"US"}],"{\"0\":\"Allentown, Pennsylvania\"}":[{"formattedAddress":"Allentown, PA, USA","latitude":40.6084305,"longitude":-75.4901833,"extra":{"googlePlaceId":"ChIJ4dxKn5I5xIkRoSRoJEvf-eo","confidence":0.5,"premise":null,"subpremise":null,"neighborhood":null,"establishment":null},"administrativeLevels":{"level2long":"Lehigh County","level2short":"Lehigh County","level1long":"Pennsylvania","level1short":"PA"},"city":"Allentown","country":"United States","countryCode":"US"}],"{\"0\":\"Charlottesville, Virginia\"}":[{"formattedAddress":"Charlottesville, VA, USA","latitude":38.0293059,"longitude":-78.47667810000002,"extra":{"googlePlaceId":"ChIJj6RQ6i2Gs4kR_HSLw5bwhpA","confidence":0.5,"premise":null,"subpremise":null,"neighborhood":null,"establishment":null},"administrativeLevels":{"level1long":"Virginia","level1short":"VA"},"city":"Charlottesville","country":"United States","countryCode":"US"}],"{\"0\":\"Los Alamitos, California\"}":[{"formattedAddress":"Los Alamitos, CA, USA","latitude":33.8030716,"longitude":-118.0725641,"extra":{"googlePlaceId":"ChIJJQtQH_Eu3YAR--qhgEZhhdQ","confidence":0.5,"premise":null,"subpremise":null,"neighborhood":null,"establishment":null},"administrativeLevels":{"level2long":"Orange County","level2short":"Orange County","level1long":"California","level1short":"CA"},"city":"Los Alamitos","country":"United States","countryCode":"US"}],"{\"0\":\"Denver, Colorado\"}":[{"formattedAddress":"Denver, CO, USA","latitude":39.7392358,"longitude":-104.990251,"extra":{"googlePlaceId":"ChIJzxcfI6qAa4cR1jaKJ_j0jhE","confidence":0.5,"premise":null,"subpremise":null,"neighborhood":null,"establishment":null},"administrativeLevels":{"level2long":"Denver County","level2short":"Denver County","level1long":"Colorado","level1short":"CO"},"city":"Denver","country":"United States","countryCode":"US"}],"{\"0\":\"Sacramento, California\"}":[{"formattedAddress":"Sacramento, CA, USA","latitude":38.5815719,"longitude":-121.4943996,"extra":{"googlePlaceId":"ChIJ-ZeDsnLGmoAR238ZdKpqH5I","confidence":0.5,"premise":null,"subpremise":null,"neighborhood":null,"establishment":null},"administrativeLevels":{"level2long":"Sacramento County","level2short":"Sacramento County","level1long":"California","level1short":"CA"},"city":"Sacramento","country":"United States","countryCode":"US"}],"{\"0\":\"St. Petersburg , Florida\"}":[{"formattedAddress":"St. Petersburg, FL, USA","latitude":27.7518284,"longitude":-82.6267345,"extra":{"googlePlaceId":"ChIJQao6aWPmwogR_4vUvANAzAQ","confidence":0.5,"premise":null,"subpremise":null,"neighborhood":null,"establishment":null},"administrativeLevels":{"level2long":"Pinellas County","level2short":"Pinellas County","level1long":"Florida","level1short":"FL"},"city":"Saint Petersburg","country":"United States","countryCode":"US"}],"{\"0\":\"Pallm Springs, California\"}":[{"formattedAddress":"Palm Springs, CA, USA","latitude":33.8302961,"longitude":-116.5452921,"extra":{"googlePlaceId":"ChIJs-Xb_9Qa24ARfHntwodp5aE","confidence":0.5,"premise":null,"subpremise":null,"neighborhood":null,"establishment":null},"administrativeLevels":{"level2long":"Riverside County","level2short":"Riverside County","level1long":"California","level1short":"CA"},"city":"Palm Springs","country":"United States","countryCode":"US"}],"{\"0\":\"San Diego , California\"}":[{"formattedAddress":"San Diego, CA, USA","latitude":32.715738,"longitude":-117.1610838,"extra":{"googlePlaceId":"ChIJSx6SrQ9T2YARed8V_f0hOg0","confidence":0.5,"premise":null,"subpremise":null,"neighborhood":null,"establishment":null},"administrativeLevels":{"level2long":"San Diego County","level2short":"San Diego County","level1long":"California","level1short":"CA"},"city":"San Diego","country":"United States","countryCode":"US"}],"{\"0\":\"Minneapolis, Minnesota\"}":[{"formattedAddress":"Minneapolis, MN, USA","latitude":44.977753,"longitude":-93.2650108,"extra":{"googlePlaceId":"ChIJvbt3k5Azs1IRB-56L4TJn5M","confidence":0.5,"premise":null,"subpremise":null,"neighborhood":null,"establishment":null},"administrativeLevels":{"level2long":"Hennepin County","level2short":"Hennepin County","level1long":"Minnesota","level1short":"MN"},"city":"Minneapolis","country":"United States","countryCode":"US"}],"{\"0\":\"Coal City, Illinois\"}":[{"formattedAddress":"Coal City, IL, USA","latitude":41.2878096,"longitude":-88.2856185,"extra":{"googlePlaceId":"ChIJexMS-mSCDogRJmX9B4w2ms0","confidence":0.5,"premise":null,"subpremise":null,"neighborhood":null,"establishment":null},"administrativeLevels":{"level2long":"Grundy County","level2short":"Grundy County","level1long":"Illinois","level1short":"IL"},"city":"Coal City","country":"United States","countryCode":"US"}],"{\"0\":\"Huntsville, Virginia\"}":[{"formattedAddress":"Virginia Blvd NW, Huntsville, AL, USA","latitude":34.751613,"longitude":-86.586281,"extra":{"googlePlaceId":"ChIJWWyJjjZrYogRUN2oLOspScY","confidence":0.7,"premise":null,"subpremise":null,"neighborhood":null,"establishment":null},"administrativeLevels":{"level2long":"Madison County","level2short":"Madison County","level1long":"Alabama","level1short":"AL"},"streetName":"Virginia Boulevard Northwest","city":"Huntsville","country":"United States","countryCode":"US"},{"formattedAddress":"Virginia St, Huntsville, MO 65259, USA","latitude":39.4427055,"longitude":-92.5500527,"extra":{"googlePlaceId":"ChIJ0yfewe3RwocRYNSrvIsIOhA","confidence":0.7,"premise":null,"subpremise":null,"neighborhood":null,"establishment":null},"administrativeLevels":{"level3long":"Salt Springs Township","level3short":"Salt Springs Township","level2long":"Randolph County","level2short":"Randolph County","level1long":"Missouri","level1short":"MO"},"streetName":"Virginia Street","city":"Huntsville","country":"United States","countryCode":"US","zipcode":"65259"},{"formattedAddress":"Huntsville, NC, USA","latitude":36.296712,"longitude":-79.9864071,"extra":{"googlePlaceId":"ChIJCxh8ZlH6UogRKIyHxqM2zsE","confidence":0.5,"premise":null,"subpremise":null,"neighborhood":null,"establishment":null},"administrativeLevels":{"level3long":"Huntsville","level3short":"Huntsville","level2long":"Rockingham County","level2short":"Rockingham County","level1long":"North Carolina","level1short":"NC"},"country":"United States","countryCode":"US"},{"formattedAddress":"Virginia Ct, Madison, AL 35756, USA","latitude":34.7434432,"longitude":-86.7894553,"extra":{"googlePlaceId":"ChIJdWNsgo9mYogR1ta3_f5AkLU","confidence":0.7,"premise":null,"subpremise":null,"neighborhood":null,"establishment":null},"administrativeLevels":{"level2long":"Limestone County","level2short":"Limestone County","level1long":"Alabama","level1short":"AL"},"streetName":"Virginia Court","city":"Madison","country":"United States","countryCode":"US","zipcode":"35756"},{"formattedAddress":"Huntsville Ct, Chesterfield, VA 23832, USA","latitude":37.4402416,"longitude":-77.521008,"extra":{"googlePlaceId":"ChIJQQ4_Zf4MsYkRVGPPMfLmdN4","confidence":0.7,"premise":null,"subpremise":null,"neighborhood":null,"establishment":null},"administrativeLevels":{"level3long":"Dale","level3short":"Dale","level2long":"Chesterfield County","level2short":"Chesterfield County","level1long":"Virginia","level1short":"VA"},"streetName":"Huntsville Court","city":"Chesterfield","country":"United States","countryCode":"US","zipcode":"23832"},{"formattedAddress":"Huntsville Rd, Chesterfield, VA 23832, USA","latitude":37.4402191,"longitude":-77.520399,"extra":{"googlePlaceId":"ChIJI_3Vaf4MsYkRQzaoIJsdeJE","confidence":0.7,"premise":null,"subpremise":null,"neighborhood":null,"establishment":null},"administrativeLevels":{"level3long":"Dale","level3short":"Dale","level2long":"Chesterfield County","level2short":"Chesterfield County","level1long":"Virginia","level1short":"VA"},"streetName":"Huntsville Road","city":"Chesterfield","country":"United States","countryCode":"US","zipcode":"23832"},{"formattedAddress":"Virginia Dr, Athens, AL 35611, USA","latitude":34.7937249,"longitude":-86.9918478,"extra":{"googlePlaceId":"ChIJNfxClpqMYogRAaZ8uzb3Fy8","confidence":0.7,"premise":null,"subpremise":null,"neighborhood":null,"establishment":null},"administrativeLevels":{"level2long":"Limestone County","level2short":"Limestone County","level1long":"Alabama","level1short":"AL"},"streetName":"Virginia Drive","city":"Athens","country":"United States","countryCode":"US","zipcode":"35611"},{"formattedAddress":"Virginia Ln, Athens, AL 35611, USA","latitude":34.7256682,"longitude":-86.99715669999999,"extra":{"googlePlaceId":"ChIJf77WVruOYogRSuWBCfpcyyA","confidence":0.7,"premise":null,"subpremise":null,"neighborhood":null,"establishment":null},"administrativeLevels":{"level2long":"Limestone County","level2short":"Limestone County","level1long":"Alabama","level1short":"AL"},"streetName":"Virginia Lane","city":"Athens","country":"United States","countryCode":"US","zipcode":"35611"}],"{\"0\":\"Houston, Texas\"}":[{"formattedAddress":"Houston, TX, USA","latitude":29.7604267,"longitude":-95.3698028,"extra":{"googlePlaceId":"ChIJAYWNSLS4QIYROwVl894CDco","confidence":0.5,"premise":null,"subpremise":null,"neighborhood":null,"establishment":null},"administrativeLevels":{"level2long":"Harris County","level2short":"Harris County","level1long":"Texas","level1short":"TX"},"city":"Houston","country":"United States","countryCode":"US"}],"{\"0\":\"San Bernadino, California\"}":[{"formattedAddress":"San Bernardino, CA, USA","latitude":34.1083449,"longitude":-117.2897652,"extra":{"googlePlaceId":"ChIJ87j94n1Tw4ARjcKHjHjGZyg","confidence":0.5,"premise":null,"subpremise":null,"neighborhood":null,"establishment":null},"administrativeLevels":{"level2long":"San Bernardino County","level2short":"San Bernardino County","level1long":"California","level1short":"CA"},"city":"San Bernardino","country":"United States","countryCode":"US"}],"{\"0\":\"Fort Rucker, Alabama\"}":[{"formattedAddress":"Fort Rucker, AL, USA","latitude":31.3400515,"longitude":-85.7153754,"extra":{"googlePlaceId":"ChIJ2a5dfO9kkogRPpVQEy-7kE8","confidence":0.5,"premise":null,"subpremise":null,"neighborhood":null,"establishment":null},"administrativeLevels":{"level2long":"Dale County","level2short":"Dale County","level1long":"Alabama","level1short":"AL"},"city":"Fort Rucker","country":"United States","countryCode":"US"}],"{\"0\":\"West Palm Beach, Florida\"}":[{"formattedAddress":"West Palm Beach, FL, USA","latitude":26.7153424,"longitude":-80.0533746,"extra":{"googlePlaceId":"ChIJwa2VtczV2IgR3mvhH7XH7xU","confidence":0.5,"premise":null,"subpremise":null,"neighborhood":null,"establishment":null},"administrativeLevels":{"level2long":"Palm Beach County","level2short":"Palm Beach County","level1long":"Florida","level1short":"FL"},"city":"West Palm Beach","country":"United States","countryCode":"US"}],"{\"0\":\"Beverly, Massachusetts\"}":[{"formattedAddress":"Beverly, MA, USA","latitude":42.5584283,"longitude":-70.880049,"extra":{"googlePlaceId":"ChIJl3tm6msW44kRTqFvsHqjt8c","confidence":0.5,"premise":null,"subpremise":null,"neighborhood":null,"establishment":null},"administrativeLevels":{"level2long":"Essex County","level2short":"Essex County","level1long":"Massachusetts","level1short":"MA"},"city":"Beverly","country":"United States","countryCode":"US"}],"{\"0\":\"Beaumont, Texas\"}":[{"formattedAddress":"Beaumont, TX, USA","latitude":30.080174,"longitude":-94.1265562,"extra":{"googlePlaceId":"ChIJnbGPPRjLPoYRHc1a3D6crv0","confidence":0.5,"premise":null,"subpremise":null,"neighborhood":null,"establishment":null},"administrativeLevels":{"level2long":"Jefferson County","level2short":"Jefferson County","level1long":"Texas","level1short":"TX"},"city":"Beaumont","country":"United States","countryCode":"US"}],"{\"0\":\"Andrews AFB, Maryland\"}":[{"formattedAddress":"Joint Base Andrews, MD, USA","latitude":38.7965203,"longitude":-76.8836261,"extra":{"googlePlaceId":"ChIJ-yDLLbW9t4kRnnYjPMP5MQs","confidence":0.5,"premise":null,"subpremise":null,"neighborhood":null,"establishment":null},"administrativeLevels":{"level3long":"9, Surratts","level3short":"9, Surratts","level2long":"Prince George's County","level2short":"Prince George's County","level1long":"Maryland","level1short":"MD"},"city":"Joint Base Andrews","country":"United States","countryCode":"US"}],"{\"0\":\"Wichita, Kansas\"}":[{"formattedAddress":"Wichita, KS, USA","latitude":37.68717609999999,"longitude":-97.33005299999999,"extra":{"googlePlaceId":"ChIJLRh_0mrbuocRPj3TdL_VlpM","confidence":0.5,"premise":null,"subpremise":null,"neighborhood":null,"establishment":null},"administrativeLevels":{"level2long":"Sedgwick County","level2short":"Sedgwick County","level1long":"Kansas","level1short":"KS"},"city":"Wichita","country":"United States","countryCode":"US"}],"{\"0\":\"Macon, Georgia\"}":[{"formattedAddress":"Macon, GA, USA","latitude":32.8406946,"longitude":-83.6324022,"extra":{"googlePlaceId":"ChIJDeOBiEv484gRoaS_8Tx9se4","confidence":0.5,"premise":null,"subpremise":null,"neighborhood":null,"establishment":null},"administrativeLevels":{"level2long":"Bibb County","level2short":"Bibb County","level1long":"Georgia","level1short":"GA"},"city":"Macon","country":"United States","countryCode":"US"}],"{\"0\":\"Savannah, Georgia\"}":[{"formattedAddress":"Savannah, GA, USA","latitude":32.0835407,"longitude":-81.09983419999999,"extra":{"googlePlaceId":"ChIJWQbyePx1-4gRvCBgA1FnDE4","confidence":0.5,"premise":null,"subpremise":null,"neighborhood":null,"establishment":null},"administrativeLevels":{"level2long":"Chatham County","level2short":"Chatham County","level1long":"Georgia","level1short":"GA"},"city":"Savannah","country":"United States","countryCode":"US"}],"{\"0\":\"Princeton, New Jersey\"}":[{"formattedAddress":"Princeton, NJ, USA","latitude":40.3572976,"longitude":-74.6672226,"extra":{"googlePlaceId":"ChIJ8VnQcsHmw4kRwtYTSpNJzT8","confidence":0.5,"premise":null,"subpremise":null,"neighborhood":null,"establishment":null},"administrativeLevels":{"level2long":"Mercer County","level2short":"Mercer County","level1long":"New Jersey","level1short":"NJ"},"city":"Princeton","country":"United States","countryCode":"US"}],"{\"0\":\"Salem, New Jersey\"}":[{"formattedAddress":"Salem, NJ, USA","latitude":39.5717796,"longitude":-75.46714229999999,"extra":{"googlePlaceId":"ChIJjZNpqMkQx4kRescAjj4R6jA","confidence":0.5,"premise":null,"subpremise":null,"neighborhood":null,"establishment":null},"administrativeLevels":{"level2long":"Salem County","level2short":"Salem County","level1long":"New Jersey","level1short":"NJ"},"city":"Salem","country":"United States","countryCode":"US"}],"{\"0\":\"Roanoke, Virginia\"}":[{"formattedAddress":"Roanoke, VA, USA","latitude":37.2709704,"longitude":-79.9414266,"extra":{"googlePlaceId":"ChIJ_Wapak0MTYgRm5iw28u-nSQ","confidence":0.5,"premise":null,"subpremise":null,"neighborhood":null,"establishment":null},"administrativeLevels":{"level1long":"Virginia","level1short":"VA"},"city":"Roanoke","country":"United States","countryCode":"US"}],"{\"0\":\"Tulsa, Oklahoma\"}":[{"formattedAddress":"Tulsa, OK, USA","latitude":36.1539816,"longitude":-95.99277500000001,"extra":{"googlePlaceId":"ChIJjy7R3biStocR92rZG8gQaec","confidence":0.5,"premise":null,"subpremise":null,"neighborhood":null,"establishment":null},"administrativeLevels":{"level2long":"Tulsa County","level2short":"Tulsa County","level1long":"Oklahoma","level1short":"OK"},"city":"Tulsa","country":"United States","countryCode":"US"}],"{\"0\":\"Oklahoma, Oklahoma\"}":[{"formattedAddress":"Oklahoma City, OK, USA","latitude":35.4675602,"longitude":-97.5164276,"extra":{"googlePlaceId":"ChIJgdL4flSKrYcRnTpP0XQSojM","confidence":0.5,"premise":null,"subpremise":null,"neighborhood":null,"establishment":null},"administrativeLevels":{"level2long":"Oklahoma County","level2short":"Oklahoma County","level1long":"Oklahoma","level1short":"OK"},"city":"Oklahoma City","country":"United States","countryCode":"US"}],"{\"0\":\"Van Nuys , California\"}":[{"formattedAddress":"Van Nuys, Los Angeles, CA, USA","latitude":34.1898566,"longitude":-118.451357,"extra":{"googlePlaceId":"ChIJa-i6-hqXwoARSIjZDHu_cMg","confidence":0.5,"premise":null,"subpremise":null,"neighborhood":"Van Nuys","establishment":null},"administrativeLevels":{"level2long":"Los Angeles County","level2short":"Los Angeles County","level1long":"California","level1short":"CA"},"city":"Los Angeles","country":"United States","countryCode":"US"}],"{\"0\":\"LOS ANGELES, California\"}":[{"formattedAddress":"Los Angeles, CA, USA","latitude":34.0522342,"longitude":-118.2436849,"extra":{"googlePlaceId":"ChIJE9on3F3HwoAR9AhGJW_fL-I","confidence":0.5,"premise":null,"subpremise":null,"neighborhood":null,"establishment":null},"administrativeLevels":{"level2long":"Los Angeles County","level2short":"Los Angeles County","level1long":"California","level1short":"CA"},"city":"Los Angeles","country":"United States","countryCode":"US"}],"{\"0\":\"Ft Worth, Texas\"}":[{"formattedAddress":"Fort Worth, TX, USA","latitude":32.7554883,"longitude":-97.3307658,"extra":{"googlePlaceId":"ChIJrQfILRJuToYRvaxp3fiLr6Q","confidence":0.5,"premise":null,"subpremise":null,"neighborhood":null,"establishment":null},"administrativeLevels":{"level2long":"Tarrant County","level2short":"Tarrant County","level1long":"Texas","level1short":"TX"},"city":"Fort Worth","country":"United States","countryCode":"US"}],"{\"0\":\"Jonesville, North Carolina\"}":[{"formattedAddress":"Jonesville, NC 28642, USA","latitude":36.2393013,"longitude":-80.84451519999999,"extra":{"googlePlaceId":"ChIJHbHmSZh_UYgR4oo1Xq7UJ9o","confidence":0.5,"premise":null,"subpremise":null,"neighborhood":null,"establishment":null},"administrativeLevels":{"level3long":"North Knobs","level3short":"North Knobs","level2long":"Yadkin County","level2short":"Yadkin County","level1long":"North Carolina","level1short":"NC"},"city":"Jonesville","country":"United States","countryCode":"US","zipcode":"28642"}],"{\"0\":\"Aspen, Colorado\"}":[{"formattedAddress":"Aspen, CO 81611, USA","latitude":39.1910983,"longitude":-106.8175387,"extra":{"googlePlaceId":"ChIJfTxB93w5QIcRcvYseNxCK8E","confidence":0.5,"premise":null,"subpremise":null,"neighborhood":null,"establishment":null},"administrativeLevels":{"level2long":"Pitkin County","level2short":"Pitkin County","level1long":"Colorado","level1short":"CO"},"city":"Aspen","country":"United States","countryCode":"US","zipcode":"81611"}],"{\"0\":\"New York City, New York\"}":[{"formattedAddress":"New York, NY, USA","latitude":40.7127837,"longitude":-74.0059413,"extra":{"googlePlaceId":"ChIJOwg_06VPwokRYv534QaPC8g","confidence":0.5,"premise":null,"subpremise":null,"neighborhood":null,"establishment":null},"administrativeLevels":{"level1long":"New York","level1short":"NY"},"city":"New York","country":"United States","countryCode":"US"},{"formattedAddress":"New York, MO 64644, USA","latitude":39.6852874,"longitude":-93.9268836,"extra":{"googlePlaceId":"ChIJtxWVM2vuwYcR9mO37IBbf-U","confidence":0.5,"premise":null,"subpremise":null,"neighborhood":null,"establishment":null},"administrativeLevels":{"level3long":"New York Township","level3short":"New York Township","level2long":"Caldwell County","level2short":"Caldwell County","level1long":"Missouri","level1short":"MO"},"city":"New York","country":"United States","countryCode":"US","zipcode":"64644"}],"{\"0\":\"Centennial, Colorado\"}":[{"formattedAddress":"Centennial, CO, USA","latitude":39.5807452,"longitude":-104.8771726,"extra":{"googlePlaceId":"ChIJxZcK8sSFbIcRp9fGQoEd05k","confidence":0.5,"premise":null,"subpremise":null,"neighborhood":null,"establishment":null},"administrativeLevels":{"level2long":"Arapahoe County","level2short":"Arapahoe County","level1long":"Colorado","level1short":"CO"},"city":"Centennial","country":"United States","countryCode":"US"}],"{\"0\":\"Henderson, West Virginia\"}":[{"formattedAddress":"Henderson, WV, USA","latitude":38.833692,"longitude":-82.1382,"extra":{"googlePlaceId":"ChIJlwFXwXOcSIgRy6TKBV0TSYQ","confidence":0.5,"premise":null,"subpremise":null,"neighborhood":null,"establishment":null},"administrativeLevels":{"level3long":"Clendenin","level3short":"Clendenin","level2long":"Mason County","level2short":"Mason County","level1long":"West Virginia","level1short":"WV"},"city":"Henderson","country":"United States","countryCode":"US"}],"{\"0\":\"Des Moines, Washington\"}":[{"formattedAddress":"Des Moines, WA, USA","latitude":47.4017661,"longitude":-122.3242902,"extra":{"googlePlaceId":"ChIJn0dIj1xbkFQRFOV0jwA1Tog","confidence":0.5,"premise":null,"subpremise":null,"neighborhood":null,"establishment":null},"administrativeLevels":{"level2long":"King County","level2short":"King County","level1long":"Washington","level1short":"WA"},"city":"Des Moines","country":"United States","countryCode":"US"}],"{\"0\":\"Fairbanks, Alaska\"}":[{"formattedAddress":"Fairbanks, AK, USA","latitude":64.8377778,"longitude":-147.7163889,"extra":{"googlePlaceId":"ChIJqWX9Z09FMlEROvf-CeAF2LM","confidence":0.5,"premise":null,"subpremise":null,"neighborhood":null,"establishment":null},"administrativeLevels":{"level2long":"Fairbanks North Star","level2short":"Fairbanks North Star","level1long":"Alaska","level1short":"AK"},"city":"Fairbanks","country":"United States","countryCode":"US"}],"{\"0\":\"Oklahoma City, Oklahoma\"}":[{"formattedAddress":"Oklahoma City, OK, USA","latitude":35.4675602,"longitude":-97.5164276,"extra":{"googlePlaceId":"ChIJgdL4flSKrYcRnTpP0XQSojM","confidence":0.5,"premise":null,"subpremise":null,"neighborhood":null,"establishment":null},"administrativeLevels":{"level2long":"Oklahoma County","level2short":"Oklahoma County","level1long":"Oklahoma","level1short":"OK"},"city":"Oklahoma City","country":"United States","countryCode":"US"}],"{\"0\":\"Venice Beach, California\"}":[{"formattedAddress":"Venice Beach, Half Moon Bay, CA 94019, USA","latitude":37.4799417,"longitude":-122.449833,"extra":{"googlePlaceId":"ChIJWba5dGFzj4ARoSXqCumqmCk","confidence":0.5,"premise":null,"subpremise":null,"neighborhood":null,"establishment":null},"administrativeLevels":{"level2long":"San Mateo County","level2short":"San Mateo County","level1long":"California","level1short":"CA"},"city":"Half Moon Bay","country":"United States","countryCode":"US","zipcode":"94019"},{"formattedAddress":"Venice Beach, California, USA","latitude":33.9936153,"longitude":-118.4799099,"extra":{"googlePlaceId":"ChIJ512buqS6woAReLLWQupEX2A","confidence":0.5,"premise":null,"subpremise":null,"neighborhood":null,"establishment":null},"administrativeLevels":{"level2long":"Los Angeles County","level2short":"Los Angeles County","level1long":"California","level1short":"CA"},"country":"United States","countryCode":"US"}],"{\"0\":\"Souix Falls, South Dakota\"}":[{"formattedAddress":"Sioux Falls, SD, USA","latitude":43.5445959,"longitude":-96.73110340000001,"extra":{"googlePlaceId":"ChIJ16y94Ji0jocRz_yyqDr_ld4","confidence":0.5,"premise":null,"subpremise":null,"neighborhood":null,"establishment":null},"administrativeLevels":{"level2long":"Minnehaha County","level2short":"Minnehaha County","level1long":"South Dakota","level1short":"SD"},"city":"Sioux Falls","country":"United States","countryCode":"US"}],"{\"0\":\"Monroe, Louisiana\"}":[{"formattedAddress":"Monroe, LA, USA","latitude":32.5093109,"longitude":-92.1193012,"extra":{"googlePlaceId":"ChIJC4SY5XZILoYRybS4yTnSzpg","confidence":0.5,"premise":null,"subpremise":null,"neighborhood":null,"establishment":null},"administrativeLevels":{"level2long":"Ouachita Parish","level2short":"Ouachita Parish","level1long":"Louisiana","level1short":"LA"},"city":"Monroe","country":"United States","countryCode":"US"}],"{\"0\":\"Cincinnati, Ohio\"}":[{"formattedAddress":"Cincinnati, OH, USA","latitude":39.1031182,"longitude":-84.5120196,"extra":{"googlePlaceId":"ChIJ-SE43rFRQIgRF5PA5It--2k","confidence":0.5,"premise":null,"subpremise":null,"neighborhood":null,"establishment":null},"administrativeLevels":{"level2long":"Hamilton County","level2short":"Hamilton County","level1long":"Ohio","level1short":"OH"},"city":"Cincinnati","country":"United States","countryCode":"US"}],"{\"0\":\"Columbus, Georgia\"}":[{"formattedAddress":"Columbus, GA, USA","latitude":32.4609764,"longitude":-84.9877094,"extra":{"googlePlaceId":"ChIJ9TE1WBvNjIgRYQPh7qlQjHI","confidence":0.5,"premise":null,"subpremise":null,"neighborhood":null,"establishment":null},"administrativeLevels":{"level2long":"Muscogee County","level2short":"Muscogee County","level1long":"Georgia","level1short":"GA"},"city":"Columbus","country":"United States","countryCode":"US"}],"{\"0\":\"Cohassett, Massachusetts\"}":[{"formattedAddress":"Cohasset, MA, USA","latitude":42.24176749999999,"longitude":-70.8036544,"extra":{"googlePlaceId":"ChIJCZfJVidd44kReY8rIQrKZzU","confidence":0.5,"premise":null,"subpremise":null,"neighborhood":null,"establishment":null},"administrativeLevels":{"level2long":"Norfolk County","level2short":"Norfolk County","level1long":"Massachusetts","level1short":"MA"},"city":"Cohasset","country":"United States","countryCode":"US"},{"formattedAddress":"Massachusetts Bay, Massachusetts, USA","latitude":42.3248324,"longitude":-70.78820999999999,"extra":{"googlePlaceId":"ChIJeam-Q6FC44kR95sflHR3qKI","confidence":0.5,"premise":null,"subpremise":null,"neighborhood":null,"establishment":null},"administrativeLevels":{"level1long":"Massachusetts","level1short":"MA"},"country":"United States","countryCode":"US"}],"{\"0\":\"Fresno, California\"}":[{"formattedAddress":"Fresno, CA, USA","latitude":36.7468422,"longitude":-119.7725868,"extra":{"googlePlaceId":"ChIJnU6eVOFdlIAREbijSWRAEns","confidence":0.5,"premise":null,"subpremise":null,"neighborhood":null,"establishment":null},"administrativeLevels":{"level2long":"Fresno County","level2short":"Fresno County","level1long":"California","level1short":"CA"},"city":"Fresno","country":"United States","countryCode":"US"}],"{\"0\":\"Palm Beach, Florida\"}":[{"formattedAddress":"Palm Beach, FL, USA","latitude":26.7056206,"longitude":-80.0364297,"extra":{"googlePlaceId":"ChIJhzdSGPbW2IgRGkem18eSoDs","confidence":0.5,"premise":null,"subpremise":null,"neighborhood":null,"establishment":null},"administrativeLevels":{"level2long":"Palm Beach County","level2short":"Palm Beach County","level1long":"Florida","level1short":"FL"},"city":"Palm Beach","country":"United States","countryCode":"US"}],"{\"0\":\"Queens, New York\"}":[{"formattedAddress":"Queens, NY, USA","latitude":40.7282239,"longitude":-73.7948516,"extra":{"googlePlaceId":"ChIJK1kKR2lDwokRBXtcbIvRCUE","confidence":0.5,"premise":null,"subpremise":null,"neighborhood":null,"establishment":null},"administrativeLevels":{"level2long":"Queens County","level2short":"Queens County","level1long":"New York","level1short":"NY"},"city":"New York","country":"United States","countryCode":"US"},{"formattedAddress":"Queens County, NY, USA","latitude":40.7282239,"longitude":-73.7948516,"extra":{"googlePlaceId":"ChIJgav5pFbxwokRno6Tc5x2GL8","confidence":0.5,"premise":null,"subpremise":null,"neighborhood":null,"establishment":null},"administrativeLevels":{"level2long":"Queens County","level2short":"Queens County","level1long":"New York","level1short":"NY"},"country":"United States","countryCode":"US"}],"{\"0\":\"Greensboro, North Carolina\"}":[{"formattedAddress":"Greensboro, NC, USA","latitude":36.0726354,"longitude":-79.7919754,"extra":{"googlePlaceId":"ChIJeXvHOD8ZU4gRyBK-eJTEuZM","confidence":0.5,"premise":null,"subpremise":null,"neighborhood":null,"establishment":null},"administrativeLevels":{"level2long":"Guilford County","level2short":"Guilford County","level1long":"North Carolina","level1short":"NC"},"city":"Greensboro","country":"United States","countryCode":"US"}],"{\"0\":\"Naples, Florida\"}":[{"formattedAddress":"Naples, FL, USA","latitude":26.1420358,"longitude":-81.7948103,"extra":{"googlePlaceId":"ChIJrdfCc5vh2ogRqpos1xhTP2c","confidence":0.5,"premise":null,"subpremise":null,"neighborhood":null,"establishment":null},"administrativeLevels":{"level2long":"Collier County","level2short":"Collier County","level1long":"Florida","level1short":"FL"},"city":"Naples","country":"United States","countryCode":"US"}],"{\"0\":\"Romeo, Michigan\"}":[{"formattedAddress":"Romeo, MI, USA","latitude":42.802808,"longitude":-83.0129874,"extra":{"googlePlaceId":"ChIJuUy68rLkJIgRbxk3dTv6XNc","confidence":0.5,"premise":null,"subpremise":null,"neighborhood":null,"establishment":null},"administrativeLevels":{"level2long":"Macomb County","level2short":"Macomb County","level1long":"Michigan","level1short":"MI"},"city":"Romeo","country":"United States","countryCode":"US"}],"{\"0\":\"Sanford, Florida\"}":[{"formattedAddress":"Sanford, FL, USA","latitude":28.8028612,"longitude":-81.269453,"extra":{"googlePlaceId":"ChIJ94gj7A0T54gRTFWAlk5-McM","confidence":0.5,"premise":null,"subpremise":null,"neighborhood":null,"establishment":null},"administrativeLevels":{"level2long":"Seminole County","level2short":"Seminole County","level1long":"Florida","level1short":"FL"},"city":"Sanford","country":"United States","countryCode":"US"}],"{\"0\":\"Martha's Vineyard, Massachusetts\"}":[{"formattedAddress":"Martha's Vineyard, Massachusetts, USA","latitude":41.3804981,"longitude":-70.645473,"extra":{"googlePlaceId":"ChIJOxU0AIkl5YkRQ7y05Pwt1_U","confidence":0.5,"premise":null,"subpremise":null,"neighborhood":null,"establishment":null},"administrativeLevels":{"level2long":"Dukes County","level2short":"Dukes County","level1long":"Massachusetts","level1short":"MA"},"country":"United States","countryCode":"US"}],"{\"0\":\"Victorville, California\"}":[{"formattedAddress":"Victorville, CA, USA","latitude":34.5362184,"longitude":-117.2927641,"extra":{"googlePlaceId":"ChIJedLdY1pkw4ARdjT0JVkRlQ0","confidence":0.5,"premise":null,"subpremise":null,"neighborhood":null,"establishment":null},"administrativeLevels":{"level2long":"San Bernardino County","level2short":"San Bernardino County","level1long":"California","level1short":"CA"},